,data_hora,natureza_acidente,bairro,endereco,numero,tipo,auto,moto,ciclom,ciclista,pedestre,onibus,caminhao,viatura,outros,vitimas,vitimasfatais,acidente_verificado,tempo_clima,situacao_semaforo,sinalizacao,condicao_via,conservacao_via,velocidade_max_via,mao_direcao,latitude,longitude
0,2019-01-01 00:41:00,SEM VÍTIMA,IPSEP,AV RECIFE,,COLISÃO TRASEIRA,2,0,0,0,0,0,0,0,0,0,0,Longo da via,Bom,Não existe,Perfeito estado,Seca,Perfeito estado,60 km/h,Única,-8.1160254,-34.923929
1,2019-01-01 01:37:00,SEM VÍTIMA,BOA VIAGEM,RUA PADRE BERNADINO PESSOA,,ABALROAMENTO TRANSVERSAL,2,0,0,0,0,0,0,0,0,0,0,Cruzamento,Bom,Não existe,Perfeito estado,Seca,Perfeito estado,Não informado,Única,-8.1250569,-34.8982175
2,2019-01-01 14:20:00,SEM VÍTIMA,BOA VIAGEM,AV ENGENHEIRO DOMINGOS FERREIRA,,COLISÃO,2,0,0,0,0,0,0,0,0,0,0,Não informado,Não informado,Não informado,Não informado,Não informado,Não informado,Não informado,Não informado,-8.1155752,-34.895469899999995
3,2019-01-01 02:53:00,SEM VÍTIMA,IMBIRIBEIRA,AV GENERAL MAC ARTHUR,100,COLISÃO,2,0,0,0,0,0,0,0,0,0,0,Não informado,Não informado,Não informado,Não informado,Não informado,Não informado,Não informado,Não informado,-8.1092473,-34.9109797
4,2019-01-01 08:17:00,COM VÍTIMA,JAQUEIRA,RUA TITO ROSAS,63,COLISÃO COM CICLISTA,0,0,0,1,0,1,0,0,0,1,0,Longo da via,Bom,Não existe,Perfeito estado,Seca,Perfeito estado,40 km/h,Única,-8.0343363,-34.9074744
5,2019-01-01 09:30:00,COM VÍTIMA,IBURA,AV DOIS RIOS,1392,COLISÃO FRONTAL,1,1,0,0,0,0,0,0,0,2,0,Longo da via,Bom,Não existe,Perfeito estado,Seca,Perfeito estado,30 km/h,Dupla,-8.115972099999999,-34.940694
6,2019-01-01 09:54:00,COM VÍTIMA,SAN MARTIN,AV GENERAL SAN MARTIN,1622,CHOQUE OBJETO FIXO,1,0,0,0,0,0,0,0,0,4,0,Longo da via,Bom,Sem defeito,Perfeito estado,Seca,Perfeito estado,40 km/h,Única,-8.0658601,-34.927522100000004
7,2019-01-01 13:05:00,SEM VÍTIMA,BONGI,EST DO BONGI,290,CHOQUE VEÍCULO PARADO,1,0,0,0,0,0,1,0,0,0,0,Longo da via,Bom,Não existe,Perfeito estado,Seca,Perfeito estado,Não informado,Dupla,-8.06712115,-34.920112446793304
8,2019-01-01 15:50:00,SEM VÍTIMA,MADALENA,EST DOS REMEDIOS,2360,COLISÃO TRASEIRA,2,0,0,0,0,0,0,0,0,0,0,Longo da via,Bom,Sem defeito,Perfeito estado,Seca,Perfeito estado,Não informado,Única,-8.062370399999999,-34.9319576
9,2019-01-01 16:01:00,COM VÍTIMA,CAMPO GRANDE,EST DE BELEM,,ATROPELAMENTO,1,0,0,0,0,0,0,0,0,1,0,Não informado,Não informado,Não informado,Não informado,Não informado,Não informado,Não informado,Não informado,-8.0070266,-34.871269330000004
10,2019-01-01 17:23:00,SEM VÍTIMA,NOVA DESCOBERTA,AV VEREADOR OTACILIO AZEVEDO,2480,CHOQUE VEÍCULO PARADO,1,0,1,0,0,0,0,0,0,0,0,Não informado,Bom,Não existe,Perfeito estado,Seca,Perfeito estado,Não informado,Dupla,-8.004982799999999,-34.9158141
11,2019-01-01 19:26:00,SEM VÍTIMA,ENGENHO DO MEIO,RUA ANTONIO CURADO,,ABALROAMENTO TRANSVERSAL,2,0,0,0,0,0,0,0,0,0,0,Cruzamento,Bom,Não existe,Incompleta,Seca,Mal iluminada,Não informado,Dupla,-8.0557704,-34.9418342
12,2019-01-01 20:30:00,COM VÍTIMA,ESTÂNCIA,AV DR JOSE RUFINO,,COLISÃO FRONTAL,3,0,0,0,0,0,0,0,0,1,0,Cruzamento,Bom,Sem defeito,Perfeito estado,Seca,Perfeito estado,Não informado,Dupla,-8.0846575,-34.9321359
13,2019-01-01 21:05:00,SEM VÍTIMA,BOA VIAGEM,RUA DES JOAO PAES,,COLISÃO,2,0,0,0,0,0,0,0,0,0,0,Não informado,Não informado,Não informado,Não informado,Não informado,Não informado,Não informado,Não informado,-8.136919599999999,-34.9053222
14,2019-01-02 06:41:00,SEM VÍTIMA,BOMBA DO HEMETÉRIO,RUA PADRE OLIVEIRA,786,ABALROAMENTO LONGITUDINAL,1,0,0,0,0,1,0,0,0,0,0,Longo da via,Bom,Não existe,Perfeito estado,Seca,Perfeito estado,40 km/h,Dupla,-8.0177145,-34.9056869
15,2019-01-02 07:26:00,SEM VÍTIMA,IMBIRIBEIRA,AV MARECHAL MASCARENHAS DE MORAES,,COLISÃO TRASEIRA,2,0,0,0,0,0,0,0,0,0,0,Longo da via,Bom,Sem defeito,Perfeito estado,Seca,Perfeito estado,60 km/h,Dupla,-8.0856899,-34.9073777
16,2019-01-02 07:38:00,SEM VÍTIMA,MACAXEIRA,RUA CARLOS MARIGHELLA,567,COLISÃO FRONTAL,1,1,0,0,0,0,0,0,0,0,0,Longo da via,Bom,Não existe,Incompleta,Seca,Perfeito estado,Não informado,Dupla,-8.0075401,-34.9301679
17,2019-01-02 07:39:00,SEM VÍTIMA,IMBIRIBEIRA,RUA ALAMEDA DAS HORTENCIAS,279,ABALROAMENTO LONGITUDINAL,1,0,0,0,0,1,0,0,0,0,0,Longo da via,Bom,Não existe,Incompleta,Seca,Perfeito estado,40 km/h,Dupla,-8.1160459,-34.9076036
18,2019-01-02 08:07:00,COM VÍTIMA,SOLEDADE,RUA DA SOLEDADE,,ABALROAMENTO LONGITUDINAL,1,1,0,0,0,0,0,0,0,1,0,Cruzamento,Bom,Sem defeito,Perfeito estado,Seca,Perfeito estado,Não informado,Única,-8.0575491,-34.8899453
19,2019-01-02 08:16:00,SEM VÍTIMA,GRAÇAS,AV RUI BARBOSA,,COLISÃO TRASEIRA,2,0,0,0,0,0,0,0,0,0,0,Longo da via,Bom,Sem defeito,Perfeito estado,Seca,Perfeito estado,60 km/h,Única,-8.046046400000002,-34.901877299999995
20,2019-01-02 08:27:00,COM VÍTIMA,AREIAS,AV DR JOSE RUFINO,749,ABALROAMENTO LONGITUDINAL,1,1,0,0,0,0,0,0,0,1,0,Longo da via,Bom,Não existe,Perfeito estado,Seca,Perfeito estado,Não informado,Dupla,-8.100576499999999,-34.928400280839426
21,2019-01-02 08:42:00,SEM VÍTIMA,BOA VIAGEM,AV CONSELHEIRO AGUIAR,1140,ABALROAMENTO LONGITUDINAL,2,0,0,0,0,0,0,0,0,0,0,Longo da via,Bom,Não existe,Perfeito estado,Seca,Perfeito estado,60 km/h,Única,-8.1002945,-34.8866648
22,2019-01-02 09:11:00,SEM VÍTIMA,IMBIRIBEIRA,AV MARECHAL MASCARENHAS DE MORAES,6333,ABALROAMENTO LONGITUDINAL,2,0,0,0,0,0,0,0,0,0,0,Cruzamento,Bom,Sem defeito,Perfeito estado,Seca,Perfeito estado,Não informado,Dupla,-8.1393159,-34.91658601520072
23,2019-01-02 09:16:00,SEM VÍTIMA,MADALENA,RUA JOSE OSORIO,,ABALROAMENTO LONGITUDINAL,2,0,0,0,0,0,0,0,0,0,0,Longo da via,Bom,Sem defeito,Perfeito estado,Seca,Perfeito estado,50 km/h,Única,-8.0541365,-34.9140649
24,2019-01-02 09:22:00,SEM VÍTIMA,BOA VIAGEM,RUA JOSE DA SILVA LUCENA,18,COLISÃO,1,1,0,0,0,0,0,0,0,0,0,Não informado,Não informado,Não informado,Não informado,Não informado,Não informado,Não informado,Não informado,-8.1127728,-34.911232899999995
25,2019-01-02 09:31:00,SEM VÍTIMA,NOVA DESCOBERTA,RUA SANTA TEREZA,,ABALROAMENTO LONGITUDINAL,1,0,0,0,0,0,1,0,0,0,0,Cruzamento,Bom,Não existe,Perfeito estado,Seca,Perfeito estado,Não informado,Dupla,-7.9888144,-34.9300928
26,2019-01-02 11:10:00,SEM VÍTIMA,SANTO AMARO,AV VISCONDE DE SUASSUNA,64,COLISÃO,1,0,0,0,0,1,0,0,0,0,0,Não informado,Não informado,Não informado,Não informado,Não informado,Não informado,Não informado,Não informado,-8.054599099999999,-34.88266666409837
27,2019-01-02 11:17:00,SEM VÍTIMA,SÃO JOSÉ,RUA IMPERIAL,2077,COLISÃO,2,0,0,0,0,0,0,0,0,0,0,Não informado,Não informado,Não informado,Não informado,Não informado,Não informado,Não informado,Não informado,-8.077139,-34.8980446
28,2019-01-02 11:31:00,SEM VÍTIMA,SAN MARTIN,RUA COMENDADOR FRANCO FERREIRA,,ABALROAMENTO TRANSVERSAL,1,0,0,0,0,1,0,0,0,0,0,Cruzamento,Bom,Não existe,Perfeito estado,Seca,Perfeito estado,Não informado,Dupla,-8.0738219,-34.9293024
29,2019-01-02 11:47:00,SEM VÍTIMA,IMBIRIBEIRA,AV MARECHAL MASCARENHAS DE MORAES,,COLISÃO TRASEIRA,3,0,0,0,0,0,0,0,0,0,0,Longo da via,Bom,Não existe,Perfeito estado,Seca,Perfeito estado,60 km/h,Dupla,-8.0856899,-34.9073777
30,2019-01-02 11:50:00,SEM VÍTIMA,AFOGADOS,RUA COSME VIANA,526,ABALROAMENTO LONGITUDINAL,0,0,0,0,0,1,1,0,0,0,0,Longo da via,Bom,Sem defeito,Perfeito estado,Seca,Perfeito estado,Não informado,Única,-8.072129799999999,-34.9091214
31,2019-01-02 12:14:00,SEM VÍTIMA,SANTO ANTÔNIO,AV DANTAS BARRETO,661,ABALROAMENTO TRANSVERSAL,1,1,0,0,0,0,0,0,0,0,0,Longo da via,Bom,Não existe,Ilegível,Seca,Perfeito estado,Não informado,Única,-8.066672950000001,-34.879062397808646
32,2019-01-02 13:09:00,SEM VÍTIMA,AREIAS,AV RECIFE,712,ABALROAMENTO LONGITUDINAL,1,0,0,0,0,0,2,0,0,0,0,Longo da via,Bom,Sem defeito,Perfeito estado,Seca,Perfeito estado,Não informado,Única,-8.09251995,-34.929552482487175
33,2019-01-02 13:43:00,SEM VÍTIMA,IPUTINGA,RUA MAURICIO DE NASSAU,,ABALROAMENTO LONGITUDINAL,2,0,0,0,0,0,0,0,0,0,0,Cruzamento,Bom,Sem defeito,Perfeito estado,Seca,Perfeito estado,40 km/h,Dupla,-8.0258665,-34.859002200000006
34,2019-01-02 14:41:00,SEM VÍTIMA,MADALENA,AV VISCONDE DE ALBUQUERQUE,439,ABALROAMENTO TRANSVERSAL,2,0,0,0,0,0,0,0,0,0,0,Cruzamento,Bom,Não informado,Perfeito estado,Seca,Perfeito estado,Não informado,Única,-8.0542137,-34.907045399999994
35,2019-01-02 14:44:00,SEM VÍTIMA,SAN MARTIN,AV GENERAL SAN MARTIN,,ABALROAMENTO TRANSVERSAL,1,1,0,0,0,0,0,0,0,0,0,Cruzamento,Bom,Não existe,Não existente,Seca,Perfeito estado,Não informado,Dupla,-8.0713227,-34.928857799999996
36,2019-01-02 15:08:00,SEM VÍTIMA,PAISSANDU,RUA SPORT CLUBE DO RECIFE,98,COLISÃO TRASEIRA,2,0,0,0,0,0,0,0,0,0,0,Longo da via,Bom,Sem defeito,Perfeito estado,Seca,Perfeito estado,60 km/h,Única,-8.059786299999999,-34.898202000000005
37,2019-01-02 15:10:00,SEM VÍTIMA,TAMARINEIRA,AV NORTE,,COLISÃO TRASEIRA,1,0,0,0,0,1,0,0,0,0,0,Longo da via,Bom,Sem defeito,Perfeito estado,Seca,Perfeito estado,Não informado,Dupla,-8.027844,-34.903102000000004
38,2019-01-02 15:32:00,VÍTIMA FATAL,BONGI,EST DO BONGI,919,COLISÃO COM CICLISTA,0,0,0,1,0,0,1,0,0,0,1,Cruzamento,Bom,Sem defeito,Perfeito estado,Seca,Mal conservada,Não informado,Dupla,-8.0626415,-34.9117027
39,2019-01-02 15:36:00,SEM VÍTIMA,BEBERIBE,RUA PROFESSORA LOURDES DUTRA,2269,CHOQUE VEÍCULO PARADO,1,0,0,0,0,0,1,0,0,0,0,Longo da via,Bom,Sem defeito,Perfeito estado,Seca,Perfeito estado,Não informado,Dupla,-8.0156283,-34.89541320000001
40,2019-01-02 15:40:00,SEM VÍTIMA,TORREÃO,RUA VICENTE PIZZON,,COLISÃO TRASEIRA,2,0,0,0,0,0,0,0,0,0,0,Não informado,Bom,Não existe,Perfeito estado,Seca,Mal conservada,Não informado,Dupla,-8.027844,-34.903102000000004
41,2019-01-02 16:03:00,SEM VÍTIMA,BOA VIAGEM,RUA TENENTE DOMINGOS DE BRITO,,ABALROAMENTO TRANSVERSAL,3,0,0,0,0,0,0,0,0,0,0,Cruzamento,Bom,Sem defeito,Perfeito estado,Seca,Perfeito estado,40 km/h,Única,-8.1229682,-34.9052196
42,2019-01-02 17:05:00,COM VÍTIMA,TAMARINEIRA,AV PROFESSOR JOSE DOS ANJOS,1651,CHOQUE OBJETO FIXO,0,0,0,0,0,0,1,0,0,2,0,Longo da via,Bom,Não existe,Não existente,Seca,Perfeito estado,Não informado,Dupla,-8.0282609,-34.8950543
43,2019-01-02 18:20:00,SEM VÍTIMA,TAMARINEIRA,RUA CONEGO BARATA,,ABALROAMENTO LONGITUDINAL,1,0,0,0,0,1,0,0,0,0,0,Cruzamento,Bom,Sem defeito,Perfeito estado,Seca,Perfeito estado,60 km/h,Única,-8.0297041,-34.900425899999995
44,2019-01-02 18:56:00,SEM VÍTIMA,BOA VIAGEM,RUA PROFESSOR JOAO MEDEIROS,,ABALROAMENTO LONGITUDINAL,2,0,0,0,0,0,0,0,0,0,0,Cruzamento,Bom,Sem defeito,Perfeito estado,Seca,Perfeito estado,Não informado,Única,-8.111608,-34.8901219
45,2019-01-02 20:47:00,SEM VÍTIMA,AREIAS,AV CAPITAO GREGORIO DE CALDAS,,ABALROAMENTO LONGITUDINAL,2,0,0,0,0,0,0,0,0,0,0,Longo da via,Bom,Não existe,Perfeito estado,Seca,Perfeito estado,Não informado,Única,-8.098105499999999,-34.931136200000005
46,2019-01-02 23:21:00,SEM VÍTIMA,BOA VIAGEM,AV ENGENHEIRO DOMINGOS FERREIRA,,COLISÃO TRASEIRA,2,0,0,0,0,0,0,0,0,0,0,Longo da via,Bom,Não existe,Perfeito estado,Seca,Perfeito estado,Não informado,Única,-8.1155752,-34.895469899999995
47,2019-01-03 06:11:00,COM VÍTIMA,SAN MARTIN,RUA VINTE E UM DE ABRIL,175,ABALROAMENTO TRANSVERSAL,1,1,0,0,0,0,0,0,0,2,0,Cruzamento,Bom,Não existe,Perfeito estado,Seca,Perfeito estado,Não informado,Dupla,-8.0764818,-34.913056700000006
48,2019-01-03 07:17:00,COM VÍTIMA,SAN MARTIN,AV GENERAL SAN MARTIN,1449,ABALROAMENTO TRANSVERSAL,1,1,0,0,0,0,0,0,0,2,0,Longo da via,Bom,Não existe,Perfeito estado,Seca,Perfeito estado,Não informado,Dupla,-8.0613552,-34.9259463
49,2019-01-03 07:20:00,COM VÍTIMA,BOA VISTA,RUA DO HOSPICIO,,COLISÃO FRONTAL,1,1,0,0,0,0,0,0,0,1,0,Cruzamento,Bom,Sem defeito,Perfeito estado,Seca,Perfeito estado,Não informado,Dupla,-8.0544217,-34.8818867
50,2019-01-03 07:41:00,SEM VÍTIMA,BOA VIAGEM,RUA DOS NAVEGANTES,401,COLISÃO,2,0,0,0,0,0,0,0,0,0,0,Não informado,Não informado,Não informado,Não informado,Não informado,Não informado,Não informado,Não informado,-8.1285308,-34.8994518
51,2019-01-03 07:54:00,COM VÍTIMA,MACAXEIRA,AV NORTE,82,CHOQUE OBJETO FIXO,1,0,0,0,0,0,0,0,0,1,0,Longo da via,Bom,Não existe,Perfeito estado,Seca,Perfeito estado,60 km/h,Dupla,-8.027844,-34.903102000000004
52,2019-01-03 08:11:00,SEM VÍTIMA,AFOGADOS,RUA IMPERIAL,,COLISÃO,2,0,0,0,0,0,0,0,0,0,0,Não informado,Não informado,Não informado,Não informado,Não informado,Não informado,Não informado,Não informado,-8.0719111,-34.884563
53,2019-01-03 08:28:00,SEM VÍTIMA,CASA AMARELA,AV NORTE,4953,COLISÃO,2,0,0,0,0,0,0,0,0,0,0,Não informado,Não informado,Não informado,Não informado,Não informado,Não informado,Não informado,Não informado,-8.027844,-34.903102000000004
54,2019-01-03 08:49:00,SEM VÍTIMA,IMBIRIBEIRA,AV GENERAL MAC ARTHUR,245,COLISÃO,1,1,0,0,0,0,0,0,0,0,0,Não informado,Não informado,Não informado,Não informado,Não informado,Não informado,Não informado,Não informado,-8.1092078,-34.91042720000001
55,2019-01-03 08:51:00,SEM VÍTIMA,GRAÇAS,AV GOVERNADOR AGAMENON MAGALHAES,1114,COLISÃO TRASEIRA,2,0,0,0,0,0,0,0,0,0,0,Longo da via,Bom,Sem defeito,Perfeito estado,Seca,Perfeito estado,60 km/h,Dupla,-8.0603778,-34.8980782
56,2019-01-03 09:04:00,SEM VÍTIMA,ENCRUZILHADA,AV NORTE,1861,ABALROAMENTO LONGITUDINAL,2,0,0,0,0,0,0,0,0,0,0,Longo da via,Bom,Sem defeito,Perfeito estado,Seca,Perfeito estado,60 km/h,Dupla,-8.027844,-34.903102000000004
57,2019-01-03 09:08:00,SEM VÍTIMA,CASA FORTE,AV DEZESSETE DE AGOSTO,1176,COLISÃO TRASEIRA,2,0,0,0,0,0,0,0,0,0,0,Cruzamento,Bom,Não existe,Perfeito estado,Seca,Perfeito estado,60 km/h,Dupla,-8.037361200000001,-34.9148676
58,2019-01-03 09:29:00,SEM VÍTIMA,ESPINHEIRO,RUA DO ESPINHEIRO,602,COLISÃO TRASEIRA,2,0,0,0,0,0,0,0,0,0,0,Não informado,Bom,Sem defeito,Perfeito estado,Seca,Perfeito estado,Não informado,Única,-8.0426365,-34.8927867
59,2019-01-03 09:30:00,SEM VÍTIMA,SANTANA,RUA AMARAJI,976,COLISÃO,2,0,0,0,0,0,0,0,0,0,0,Não informado,Não informado,Não informado,Não informado,Não informado,Não informado,Não informado,Não informado,-8.0391121,-34.914404600000005
60,2019-01-03 09:36:00,SEM VÍTIMA,POÇO DA PANELA,AV DEZESSETE DE AGOSTO,2133,COLISÃO TRASEIRA,2,0,0,0,0,0,0,0,0,0,0,Longo da via,Bom,Sem defeito,Perfeito estado,Seca,Perfeito estado,60 km/h,Dupla,-8.0309104,-34.924774
61,2019-01-03 09:40:00,SEM VÍTIMA,AFOGADOS,RUA NICOLAU PEREIRA,,COLISÃO TRASEIRA,3,0,0,0,0,0,0,0,0,0,0,Longo da via,Bom,Sem defeito,Perfeito estado,Seca,Perfeito estado,Não informado,Única,-8.0769513,-34.9065032
62,2019-01-03 10:45:00,SEM VÍTIMA,IMBIRIBEIRA,AV MARECHAL MASCARENHAS DE MORAES,,ABALROAMENTO LONGITUDINAL,1,0,0,0,0,1,0,0,0,0,0,Longo da via,Bom,Não existe,Perfeito estado,Seca,Perfeito estado,Não informado,Dupla,-8.0856899,-34.9073777
63,2019-01-03 10:55:00,SEM VÍTIMA,BOA VIAGEM,AV CONSELHEIRO AGUIAR,3231,COLISÃO,2,0,0,0,0,0,0,0,0,0,0,Não informado,Não informado,Não informado,Não informado,Não informado,Não informado,Não informado,Não informado,-8.117630199999999,-34.8951403
64,2019-01-03 11:01:00,COM VÍTIMA,SANTO ANTÔNIO,AV DANTAS BARRETO,,ABALROAMENTO TRANSVERSAL,1,0,0,0,0,1,0,0,0,1,0,Cruzamento,Bom,Sem defeito,Perfeito estado,Seca,Perfeito estado,Não informado,Dupla,-8.0690451,-34.8814591
65,2019-01-03 11:42:00,SEM VÍTIMA,SÃO JOSÉ,AV SUL,,COLISÃO,2,0,0,0,0,0,0,0,0,0,0,Não informado,Não informado,Não informado,Não informado,Não informado,Não informado,Não informado,Não informado,-8.081145,-34.905034
66,2019-01-03 12:57:00,COM VÍTIMA,BOA VIAGEM,AV CONSELHEIRO AGUIAR,3197,COLISÃO,1,1,0,0,0,0,0,0,0,1,0,Cruzamento,Bom,Não existe,Perfeito estado,Seca,Perfeito estado,Não informado,Única,-8.1172943,-34.8951035
67,2019-01-03 13:29:00,SEM VÍTIMA,DERBY,RUA SAO SALVADOR,24,COLISÃO,2,0,0,0,0,0,0,0,0,0,0,Não informado,Não informado,Não informado,Não informado,Não informado,Não informado,Não informado,Não informado,-8.0497816,-34.894161
68,2019-01-03 14:28:00,SEM VÍTIMA,BOA VISTA,RUA JOSE DE ALENCAR,646,ABALROAMENTO LONGITUDINAL,2,0,0,0,0,0,0,0,0,0,0,Cruzamento,Bom,Não existe,Incompleta,Seca,Perfeito estado,30 km/h,Dupla,-8.0638389,-34.890863
69,2019-01-03 15:54:00,COM VÍTIMA,IMBIRIBEIRA,RUA ITAJAI,301,ABALROAMENTO TRANSVERSAL,1,1,0,0,0,0,0,0,0,2,0,Cruzamento,Bom,Não existe,Incompleta,Seca,Perfeito estado,Não informado,Única,-8.1097144,-34.913682
70,2019-01-03 15:59:00,SEM VÍTIMA,CORDEIRO,RUA GOMES TABORDA,1826,COLISÃO COM CICLISTA,1,0,0,1,0,0,0,0,0,0,0,Longo da via,Bom,Não existe,Perfeito estado,Seca,Perfeito estado,40 km/h,Dupla,-8.05391,-34.928002299999996
71,2019-01-03 16:04:00,SEM VÍTIMA,BOA VIAGEM,AV BOA VIAGEM,6592,ABALROAMENTO TRANSVERSAL,2,0,0,0,0,0,0,0,0,0,0,Cruzamento,Bom,Sem defeito,Perfeito estado,Seca,Perfeito estado,Não informado,Única,-8.146408099999999,-34.9061177
72,2019-01-03 16:07:00,SEM VÍTIMA,DERBY,AV GOVERNADOR AGAMENON MAGALHAES,4386,COLISÃO,2,0,0,0,0,0,0,0,0,0,0,Não informado,Não informado,Não informado,Não informado,Não informado,Não informado,Não informado,Não informado,-8.06055185,-34.898199978681504
73,2019-01-03 16:20:00,SEM VÍTIMA,PINA,RUA MANOEL DE BRITO,,ABALROAMENTO LONGITUDINAL,2,0,0,0,0,0,0,0,0,0,0,Não informado,Bom,Sem defeito,Perfeito estado,Seca,Perfeito estado,Não informado,Única,-8.0881016,-34.889494899999995
74,2019-01-03 17:29:00,COM VÍTIMA,PINA,TUNEL MANOEL DE BRITO,,COLISÃO,0,2,0,0,0,0,0,0,0,1,0,Não informado,Não informado,Não informado,Não informado,Não informado,Não informado,Não informado,Não informado,-8.0969421,-34.89064260000001
75,2019-01-03 20:37:00,SEM VÍTIMA,CORDEIRO,RUA TEOTONIO FREIRE,124,CHOQUE VEÍCULO PARADO,1,0,0,0,0,1,0,0,0,0,0,Longo da via,Bom,Não existe,Incompleta,Seca,Perfeito estado,Não informado,Única,-8.047784,-34.9230515
76,2019-01-04 07:58:00,COM VÍTIMA,TOTÓ,RUA ONZE DE AGOSTO,283,ATROPELAMENTO,0,1,0,0,1,0,0,0,0,1,0,Longo da via,Bom,Não existe,Perfeito estado,Seca,Perfeito estado,Não informado,Dupla,-8.0804963,-34.9702383
77,2019-01-04 08:03:00,SEM VÍTIMA,JARDIM SÃO PAULO,AV RECIFE,,COLISÃO,2,0,0,0,0,0,0,0,0,0,0,Não informado,Não informado,Não informado,Não informado,Não informado,Não informado,Não informado,Não informado,-8.1160254,-34.923929
78,2019-01-04 10:42:00,SEM VÍTIMA,TAMARINEIRA,RUA SOARES MORENO,,ABALROAMENTO LONGITUDINAL,2,0,0,0,0,0,0,0,0,0,0,Longo da via,Bom,Não existe,Não informado,Seca,Perfeito estado,Não informado,Dupla,-8.0291807,-34.9046171
79,2019-01-04 11:27:00,COM VÍTIMA,AFOGADOS,RUA VINTE E UM DE ABRIL,1578,COLISÃO,1,1,0,0,0,0,0,0,0,1,0,Não informado,Não informado,Não informado,Não informado,Não informado,Não informado,Não informado,Não informado,-8.0764818,-34.913056700000006
80,2019-01-04 12:07:00,SEM VÍTIMA,AFOGADOS,RUA QUITERIO INACIO DE MELLO,232,ABALROAMENTO TRANSVERSAL,2,0,0,0,0,0,0,0,1,0,0,Longo da via,Bom,Não existe,Perfeito estado,Seca,Perfeito estado,Não informado,Única,-8.0800914,-34.9062339
81,2019-01-04 12:09:00,SEM VÍTIMA,SANTO ANTÔNIO,AV N S DO CARMO,,COLISÃO,1,0,0,0,0,1,0,0,0,0,0,Não informado,Não informado,Não informado,Não informado,Não informado,Não informado,Não informado,Não informado,-8.0690451,-34.8814591
82,2019-01-04 12:30:00,COM VÍTIMA,AFOGADOS,RUA MANOEL FERNANDES DE ALBUQUERQUE,53,COLISÃO FRONTAL,1,1,0,0,0,0,0,0,0,1,0,Longo da via,Bom,Não existe,Perfeito estado,Seca,Perfeito estado,Não informado,Dupla,-8.0719111,-34.884563
83,2019-01-04 12:51:00,SEM VÍTIMA,PARNAMIRIM,AV PARNAMIRIM,31,ABALROAMENTO LONGITUDINAL,1,0,0,0,0,1,0,0,0,0,0,Não informado,Bom,Não existe,Perfeito estado,Seca,Perfeito estado,60 km/h,Única,-8.0352636,-34.907571600000004
84,2019-01-04 14:07:00,COM VÍTIMA,GRAÇAS,AV RUI BARBOSA,896,COLISÃO,1,1,0,0,0,0,0,0,0,1,0,Cruzamento,Bom,Sem defeito,Perfeito estado,Seca,Perfeito estado,Não informado,Única,-8.047894900000001,-34.899474100000006
85,2019-01-04 15:49:00,SEM VÍTIMA,BOA VISTA,AV GOVERNADOR AGAMENON MAGALHAES,,ABALROAMENTO LONGITUDINAL,2,0,0,0,0,0,0,0,0,0,0,Cruzamento,Bom,Sem defeito,Perfeito estado,Seca,Perfeito estado,Não informado,Dupla,-8.0615339,-34.8974443
86,2019-01-04 15:56:00,SEM VÍTIMA,ALTO DO MANDU,RUA MANDACARU,472,COLISÃO,1,1,0,0,0,0,0,0,0,0,0,Não informado,Não informado,Não informado,Não informado,Não informado,Não informado,Não informado,Não informado,-8.021796,-34.927570700000004
87,2019-01-04 16:00:00,SEM VÍTIMA,BOA VIAGEM,RUA TENENTE JOAO CICERO,,ABALROAMENTO TRANSVERSAL,1,1,0,0,0,0,0,0,0,0,0,Longo da via,Bom,Não existe,Perfeito estado,Seca,Perfeito estado,Não informado,Dupla,-8.111654,-34.8971319
88,2019-01-04 16:02:00,SEM VÍTIMA,BOA VISTA,RUA SETE DE SETEMBRO,202,ABALROAMENTO LONGITUDINAL,2,0,0,0,0,0,0,0,0,0,0,Longo da via,Bom,Não existe,Incompleta,Seca,Mal conservada,Não informado,Única,-8.059684200000001,-34.8825401
89,2019-01-04 17:37:00,SEM VÍTIMA,MADALENA,AV BEIRA RIO,26,CHOQUE OBJETO FIXO,1,0,0,0,0,0,0,0,0,0,0,Cruzamento,Bom,Não existe,Perfeito estado,Seca,Perfeito estado,60 km/h,Única,-8.0667355,-34.8967797
90,2019-01-04 17:49:00,SEM VÍTIMA,CABANGA,RUA BITURI,233,CHOQUE VEÍCULO PARADO,1,0,0,0,0,0,1,0,0,0,0,Longo da via,Bom,Não existe,Não existente,Seca,Mal iluminada,Não informado,Única,-8.078634000000001,-34.89357734251057
91,2019-01-04 17:52:00,SEM VÍTIMA,VÁRZEA,AV AFONSO OLINDENSE,895,ABALROAMENTO TRANSVERSAL,1,1,0,0,0,0,0,0,0,0,0,Longo da via,Bom,Não informado,Perfeito estado,Seca,Perfeito estado,40 km/h,Dupla,-8.038658400000001,-34.95685451986301
92,2019-01-04 18:41:00,COM VÍTIMA,SANTO ANTÔNIO,AV DANTAS BARRETO,,ABALROAMENTO TRANSVERSAL,0,1,0,0,0,1,0,0,0,1,0,Esquina,Bom,Sem defeito,Perfeito estado,Seca,Perfeito estado,Não informado,Não informado,-8.0690451,-34.8814591
93,2019-01-04 18:49:00,SEM VÍTIMA,AFLITOS,AV CONS ROSA E SILVA,,COLISÃO TRASEIRA,2,0,0,0,0,0,0,0,0,0,0,Longo da via,Bom,Sem defeito,Perfeito estado,Seca,Perfeito estado,Não informado,Única,-8.038709599999999,-34.89910731615315
94,2019-01-04 19:53:00,COM VÍTIMA,IMBIRIBEIRA,AV MARECHAL MASCARENHAS DE MORAES,1815,COLISÃO TRASEIRA,2,1,0,0,0,0,0,0,0,2,0,Cruzamento,Bom,Sem defeito,Perfeito estado,Seca,Perfeito estado,Não informado,Dupla,-8.1239739,-34.9146964
95,2019-01-04 20:23:00,COM VÍTIMA,IMBIRIBEIRA,AV MARECHAL MASCARENHAS DE MORAES,,COLISÃO,1,1,0,0,0,0,0,0,0,1,0,Não informado,Não informado,Não informado,Não informado,Não informado,Não informado,Não informado,Não informado,-8.0856899,-34.9073777
96,2019-01-04 22:12:00,VÍTIMA FATAL,AFOGADOS,RUA COSME VIANA,142,ATROPELAMENTO,0,1,0,0,1,0,0,0,0,0,1,Longo da via,Bom,Não existe,Não informado,Seca,Perfeito estado,Não informado,Única,-8.074546,-34.9089351
97,2019-01-04 23:00:00,SEM VÍTIMA,TORRE,AV BEIRA RIO,,CHOQUE OBJETO FIXO,1,0,0,0,0,0,0,0,0,0,0,Longo da via,Bom,Não existe,Perfeito estado,Seca,Perfeito estado,Não informado,Única,-8.0428409,-34.905144299999996
98,2019-01-04 23:17:00,COM VÍTIMA,ARRUDA,RUA DO MACHADO,,ABALROAMENTO TRANSVERSAL,0,2,0,0,0,0,0,0,0,1,0,Cruzamento,Bom,Não existe,Perfeito estado,Seca,Perfeito estado,30 km/h,Dupla,-8.0248823,-34.8903773
99,2019-01-05 01:06:00,SEM VÍTIMA,PINA,RUA PEREIRA DA COSTA,550,ABALROAMENTO LONGITUDINAL,2,0,0,0,0,0,0,0,0,0,0,Cruzamento,Bom,Sem defeito,Perfeito estado,Seca,Perfeito estado,Não informado,Única,-8.0954697,-34.8846501
100,2019-01-05 04:52:00,SEM VÍTIMA,IMBIRIBEIRA,AV MARECHAL MASCARENHAS DE MORAES,,CHOQUE OBJETO FIXO,1,0,0,0,0,0,0,0,0,0,0,Não informado,Não informado,Não informado,Não informado,Não informado,Não informado,Não informado,Não informado,-8.0856899,-34.9073777
101,2019-01-05 05:44:00,SEM VÍTIMA,NOVA DESCOBERTA,RUA NOVA DESCOBERTA,0940 A,CHOQUE VEÍCULO PARADO,2,0,0,0,0,0,0,0,0,0,0,Longo da via,Bom,Não existe,Perfeito estado,Seca,Perfeito estado,40 km/h,Dupla,-7.9998035000000005,-34.921771299999996
102,2019-01-05 06:30:00,COM VÍTIMA,MADALENA,RUA REAL DA TORRE,,CHOQUE OBJETO FIXO,1,0,0,0,0,0,0,0,0,1,0,Longo da via,Bom,Sem defeito,Não informado,Seca,Outros,Não informado,Única,-8.050885300000001,-34.908207399999995
103,2019-01-05 09:23:00,SEM VÍTIMA,IPSEP,AV RECIFE,,COLISÃO TRASEIRA,2,0,0,0,0,0,0,0,0,0,0,Longo da via,Bom,Não existe,Perfeito estado,Seca,Perfeito estado,Não informado,Dupla,-8.1160254,-34.923929
104,2019-01-05 09:35:00,SEM VÍTIMA,HIPÓDROMO,RUA MARTINS RIBEIRO,,CHOQUE VEÍCULO PARADO,1,0,0,0,0,0,1,0,0,0,0,Longo da via,Bom,Não existe,Perfeito estado,Seca,Perfeito estado,40 km/h,Dupla,-8.0345008,-34.888378499999995
105,2019-01-05 10:47:00,SEM VÍTIMA,SÃO JOSÉ,AV MARTINS DE BARROS,387,COLISÃO TRASEIRA,1,0,0,0,0,1,0,0,0,0,0,Longo da via,Bom,Sem defeito,Perfeito estado,Seca,Perfeito estado,60 km/h,Única,-8.0620554,-34.8764812
106,2019-01-05 10:51:00,SEM VÍTIMA,BOA VIAGEM,RUA CAPITAO ZUZINHA,,ABALROAMENTO LONGITUDINAL,1,0,0,0,0,1,0,0,0,0,0,Longo da via,Bom,Sem defeito,Perfeito estado,Seca,Perfeito estado,Não informado,Única,-8.1339194,-34.9047854
107,2019-01-05 11:00:00,COM VÍTIMA,IMBIRIBEIRA,AV MARECHAL MASCARENHAS DE MORAES,,ABALROAMENTO TRANSVERSAL,1,1,0,0,0,0,0,0,0,1,0,Longo da via,Bom,Não existe,Perfeito estado,Seca,Perfeito estado,Não informado,Dupla,-8.0856899,-34.9073777
108,2019-01-05 11:00:00,COM VÍTIMA,CABANGA,VIADUTO CAPITAO TEMUDO,S/N,ABALROAMENTO LONGITUDINAL,1,1,0,0,0,0,0,0,0,1,0,Viaduto,Bom,Não existe,Perfeito estado,Seca,Perfeito estado,60 km/h,Dupla,-8.0785995,-34.894468200000006
109,2019-01-05 11:17:00,SEM VÍTIMA,CABANGA,VIADUTO CAPITAO TEMUDO,,COLISÃO TRASEIRA,2,0,0,0,0,0,0,0,0,0,0,Viaduto,Bom,Não informado,Perfeito estado,Seca,Perfeito estado,60 km/h,Dupla,-8.075106,-34.893494399999994
110,2019-01-05 11:20:00,SEM VÍTIMA,IMBIRIBEIRA,AV MARECHAL MASCARENHAS DE MORAES,,COLISÃO,2,0,0,0,0,0,0,0,0,0,0,Não informado,Não informado,Não informado,Não informado,Não informado,Não informado,Não informado,Não informado,-8.0856899,-34.9073777
111,2019-01-05 11:29:00,SEM VÍTIMA,AFOGADOS,RUA COSME VIANA,766,COLISÃO TRASEIRA,3,0,0,0,0,0,0,0,0,0,0,Longo da via,Bom,Não existe,Perfeito estado,Seca,Perfeito estado,Não informado,Única,-8.074546,-34.9089351
112,2019-01-05 11:36:00,SEM VÍTIMA,MADALENA,AV ENGENHEIRO ABDIAS DE CARVALHO,,COLISÃO TRASEIRA,1,0,0,0,0,1,0,0,0,0,0,Longo da via,Bom,Sem defeito,Perfeito estado,Seca,Perfeito estado,60 km/h,Dupla,-8.062370399999999,-34.9319576
113,2019-01-05 11:48:00,SEM VÍTIMA,MUSTARDINHA,RUA ERNESTO CAVALCANTI,,ABALROAMENTO LONGITUDINAL,1,1,0,0,0,0,0,0,0,0,0,Cruzamento,Bom,Não existe,Perfeito estado,Seca,Perfeito estado,Não informado,Dupla,-8.0743145,-34.915950200000005
114,2019-01-05 12:20:00,SEM VÍTIMA,VÁRZEA,RUA VALE DO SIRIJI,2010,COLISÃO TRASEIRA,2,0,0,0,0,0,0,0,0,0,0,Longo da via,Bom,Não existe,Perfeito estado,Seca,Perfeito estado,Não informado,Dupla,-8.0363493,-34.9767237
115,2019-01-05 12:37:00,COM VÍTIMA,ILHA DO LEITE,AV LINS PETIT,,ACID. DE PERCURSO,0,1,0,0,0,0,0,0,0,1,0,Não informado,Não informado,Não informado,Não informado,Não informado,Não informado,Não informado,Não informado,-8.0615379,-34.895044
116,2019-01-05 12:42:00,SEM VÍTIMA,PRADO,AV ENGENHEIRO ABDIAS DE CARVALHO,,COLISÃO TRASEIRA,2,0,0,0,0,0,0,0,0,0,0,Longo da via,Bom,Sem defeito,Perfeito estado,Seca,Perfeito estado,Não informado,Única,-8.062370399999999,-34.9319576
117,2019-01-05 13:19:00,COM VÍTIMA,SANTO AMARO,AV CRUZ CABUGA,341,ABALROAMENTO TRANSVERSAL,1,1,0,0,0,0,0,0,0,1,0,Cruzamento,Bom,Sem defeito,Perfeito estado,Seca,Perfeito estado,Não informado,Dupla,-8.043858,-34.874348600000005
118,2019-01-05 15:25:00,SEM VÍTIMA,VÁRZEA,RUA SIRIJI,98,ABALROAMENTO LONGITUDINAL,1,0,0,0,0,1,0,0,0,0,0,Longo da via,Bom,Não existe,Ilegível,Seca,Perfeito estado,Não informado,Dupla,-8.0224538,-34.929373299999995
119,2019-01-05 15:59:00,SEM VÍTIMA,APIPUCOS,RUA DOIS IRMAOS,,ABALROAMENTO LONGITUDINAL,1,1,0,0,0,0,0,0,0,0,0,Cruzamento,Bom,Sem defeito,Perfeito estado,Seca,Perfeito estado,Não informado,Dupla,-8.016803,-34.9409974
120,2019-01-05 16:50:00,SEM VÍTIMA,SAN MARTIN,AV GENERAL SAN MARTIN,2022,COLISÃO TRASEIRA,1,1,0,0,0,0,0,0,0,0,0,Longo da via,Bom,Não existe,Perfeito estado,Seca,Perfeito estado,40 km/h,Dupla,-8.0680939,-34.9281572
121,2019-01-05 17:17:00,SEM VÍTIMA,DERBY,RUA JENER DE SOUZA,,COLISÃO,2,0,0,0,0,0,0,0,0,0,0,Não informado,Não informado,Não informado,Não informado,Não informado,Não informado,Não informado,Não informado,-8.058367500000001,-34.900008500000006
122,2019-01-05 18:19:00,SEM VÍTIMA,ARRUDA,RUA ZEFERINO AGRA,,ABALROAMENTO LONGITUDINAL,2,0,0,0,0,0,0,0,0,0,0,Cruzamento,Bom,Não existe,Não existente,Seca,Perfeito estado,Não informado,Dupla,-8.0244462,-34.8846643
123,2019-01-05 19:01:00,SEM VÍTIMA,TAMARINEIRA,EST VELHA DE AGUA FRIA,,COLISÃO TRASEIRA,2,0,0,0,0,0,0,0,0,0,0,Longo da via,Bom,Sem defeito,Perfeito estado,Seca,Perfeito estado,Não informado,Dupla,-8.026711800000001,-34.916900299999995
124,2019-01-06 02:16:00,SEM VÍTIMA,BAIRRO DO RECIFE,AV MARQUES DE OLINDA,,ABALROAMENTO TRANSVERSAL,2,0,0,0,0,0,0,0,0,0,0,Cruzamento,Bom,Intermitente,Perfeito estado,Seca,Perfeito estado,30 km/h,Única,-8.063521000000001,-34.8730311
125,2019-01-06 02:40:00,SEM VÍTIMA,MADALENA,EST DOS REMEDIOS,,ABALROAMENTO LONGITUDINAL,2,0,0,0,0,0,0,0,0,0,0,Cruzamento,Bom,Sem defeito,Perfeito estado,Seca,Perfeito estado,60 km/h,Única,-8.050885300000001,-34.908207399999995
126,2019-01-06 06:06:00,SEM VÍTIMA,BOA VIAGEM,AV ENGENHEIRO DOMINGOS FERREIRA,50,ABALROAMENTO TRANSVERSAL,1,0,0,0,0,1,0,0,0,0,0,Longo da via,Chuvoso,Não existe,Não informado,Molhada,Perfeito estado,Não informado,Única,-8.0907659,-34.88491
127,2019-01-06 12:18:00,SEM VÍTIMA,GUABIRABA,EST DOS MACACOS,,COLISÃO FRONTAL,1,1,0,0,0,0,0,0,0,0,0,Não informado,Bom,Não existe,Não existente,Seca,Mal conservada,Não informado,Dupla,-8.0699477,-34.9438098
128,2019-01-06 18:02:00,SEM VÍTIMA,AFOGADOS,AV SUL,,COLISÃO TRASEIRA,2,0,0,0,0,0,0,0,0,0,0,Longo da via,Chuvoso,Sem defeito,Perfeito estado,Molhada,Perfeito estado,Não informado,Única,-8.081145,-34.905034
129,2019-01-06 18:10:00,SEM VÍTIMA,IBURA,LAD DA COHAB,,COLISÃO FRONTAL,1,0,0,0,0,1,0,0,0,0,0,Longo da via,Chuvoso,Não existe,Perfeito estado,Molhada,Perfeito estado,40 km/h,Dupla,-8.115972099999999,-34.940694
130,2019-01-06 18:29:00,COM VÍTIMA,BOA VIAGEM,AV ENGENHEIRO DOMINGOS FERREIRA,2784,COLISÃO TRASEIRA,0,1,0,0,0,1,0,0,0,2,0,Longo da via,Bom,Sem defeito,Perfeito estado,Seca,Perfeito estado,Não informado,Única,-8.1137326,-34.8945946
131,2019-01-06 20:17:00,SEM VÍTIMA,IPUTINGA,AV CAXANGA,,ABALROAMENTO LONGITUDINAL,1,1,0,0,0,0,0,1,0,0,0,Longo da via,Bom,Não existe,Perfeito estado,Seca,Perfeito estado,Não informado,Única,-8.0311907,-34.956089
132,2019-01-06 20:48:00,SEM VÍTIMA,MACAXEIRA,RUA TEREZA CARNEIRO,4,COLISÃO,0,1,0,0,0,1,0,0,0,0,0,Não informado,Não informado,Não informado,Não informado,Não informado,Não informado,Não informado,Não informado,-8.0066925,-34.9299141
133,2019-01-07 02:13:00,SEM VÍTIMA,BOA VIAGEM,AV CONSELHEIRO AGUIAR,,ABALROAMENTO TRANSVERSAL,2,0,0,0,0,0,0,0,0,0,0,Cruzamento,Chuvoso,Sem defeito,Perfeito estado,Molhada,Perfeito estado,60 km/h,Única,-8.1017679,-34.8870824
134,2019-01-07 06:03:00,COM VÍTIMA,SANTO ANTÔNIO,PTE SEIS DE MARCO,308,TOMBAMENTO,0,1,0,0,0,0,0,0,0,1,0,Ponte,Chuvoso,Sem defeito,Perfeito estado,Molhada,Perfeito estado,Não informado,Única,-8.0690451,-34.8814591
135,2019-01-07 08:19:00,SEM VÍTIMA,MADALENA,AV JOSE GONCALVES DE MEDEIROS,,CHOQUE OBJETO FIXO,1,0,0,0,0,0,0,0,0,0,0,Longo da via,Chuvoso,Não existe,Perfeito estado,Molhada,Perfeito estado,Não informado,Dupla,-8.050885300000001,-34.908207399999995
136,2019-01-07 08:19:00,SEM VÍTIMA,BOA VIAGEM,RUA VISCONDE DE JEQUITINHONHA,336,ABALROAMENTO TRANSVERSAL,2,0,0,0,0,0,0,0,0,0,0,Longo da via,Bom,Não existe,Perfeito estado,Seca,Perfeito estado,60 km/h,Única,-8.1318442,-34.9032045
137,2019-01-07 08:30:00,COM VÍTIMA,BOA VIAGEM,RUA VISCONDE DE JEQUITINHONHA,,ABALROAMENTO LONGITUDINAL,1,1,0,0,0,0,0,0,0,1,0,Cruzamento,Bom,Sem defeito,Incompleta,Seca,Perfeito estado,Não informado,Única,-8.133753500000001,-34.9025533
138,2019-01-07 08:37:00,SEM VÍTIMA,TORRE,AV BEIRA RIO,,COLISÃO,2,0,0,0,0,0,0,0,0,0,0,Não informado,Não informado,Não informado,Não informado,Não informado,Não informado,Não informado,Não informado,-8.0428409,-34.905144299999996
139,2019-01-07 09:37:00,SEM VÍTIMA,DERBY,PRC DO DERBY,,ABALROAMENTO LONGITUDINAL,1,1,0,0,0,0,0,0,0,0,0,Longo da via,Bom,Sem defeito,Perfeito estado,Seca,Perfeito estado,50 km/h,Dupla,-8.0615339,-34.8974443
140,2019-01-07 10:44:00,COM VÍTIMA,PONTO DE PARADA,AV BEBERIBE,,ABALROAMENTO TRANSVERSAL,0,3,0,0,0,0,0,0,0,2,0,Cruzamento,Bom,Sem defeito,Perfeito estado,Seca,Perfeito estado,50 km/h,Dupla,-8.013146,-34.889349100000004
141,2019-01-07 10:48:00,COM VÍTIMA,CAXANGÁ,AV CAXANGA,3210,ATROPELAMENTO,0,0,0,0,1,0,0,1,0,1,0,Longo da via,Chuvoso,Não existe,Perfeito estado,Molhada,Perfeito estado,Não informado,Dupla,-8.0426035,-34.9347838
142,2019-01-07 11:18:00,COM VÍTIMA,AFOGADOS,EST DOS REMEDIOS,S/N,ABALROAMENTO LONGITUDINAL,1,1,0,0,0,0,0,0,0,1,0,Longo da via,Bom,Sem defeito,Perfeito estado,Seca,Perfeito estado,Não informado,Dupla,-8.081145,-34.905034
143,2019-01-07 12:02:00,SEM VÍTIMA,MADALENA,RUA JANUARIO BARBOSA,862,ABALROAMENTO LONGITUDINAL,1,1,0,0,0,0,0,0,0,0,0,Longo da via,Bom,Não existe,Perfeito estado,Seca,Perfeito estado,Não informado,Dupla,-8.0508435,-34.9050151
144,2019-01-07 12:05:00,SEM VÍTIMA,BOA VIAGEM,RUA VISCONDE DE JEQUITINHONHA,,ABALROAMENTO LONGITUDINAL,2,0,0,0,0,0,0,0,0,0,0,Cruzamento,Bom,Sem defeito,Incompleta,Seca,Perfeito estado,60 km/h,Única,-8.133753500000001,-34.9025533
145,2019-01-07 12:08:00,COM VÍTIMA,ESPINHEIRO,RUA DA HORA,906,COLISÃO,1,1,0,0,0,0,0,0,0,1,0,Não informado,Não informado,Não informado,Não informado,Não informado,Não informado,Não informado,Não informado,-8.0489579,-34.8963515
146,2019-01-07 12:15:00,SEM VÍTIMA,SANTO ANTÔNIO,AV MARTINS DE BARROS,,ABALROAMENTO TRANSVERSAL,2,0,0,0,0,0,0,0,0,0,0,Cruzamento,Bom,Sem defeito,Perfeito estado,Seca,Perfeito estado,60 km/h,Única,-8.0679918,-34.8749493
147,2019-01-07 12:18:00,SEM VÍTIMA,IMBIRIBEIRA,AV MARECHAL MASCARENHAS DE MORAES,6333,COLISÃO TRASEIRA,1,0,0,0,0,0,0,0,1,0,0,Longo da via,Bom,Sem defeito,Perfeito estado,Seca,Mal conservada,Não informado,Dupla,-8.1393159,-34.91658601520072
148,2019-01-07 12:23:00,SEM VÍTIMA,DOIS UNIDOS,AV HILDEBRANDO DE VASCONCELOS,113,ABALROAMENTO LONGITUDINAL,1,0,0,0,0,1,0,0,0,0,0,Não informado,Bom,Não existe,Incompleta,Seca,Perfeito estado,Não informado,Dupla,-8.0040434,-34.899828899999996
149,2019-01-07 12:44:00,SEM VÍTIMA,ESPINHEIRO,RUA CONS PORTELA,,ABALROAMENTO LONGITUDINAL,2,0,0,0,0,0,0,0,0,0,0,Cruzamento,Bom,Sem defeito,Perfeito estado,Seca,Perfeito estado,Não informado,Única,-8.0425573,-34.894698999999996
150,2019-01-07 13:24:00,SEM VÍTIMA,BOA VISTA,RUA BARAO DE SAO BORJA,,COLISÃO FRONTAL,2,0,0,0,0,0,0,0,0,0,0,Cruzamento,Bom,Não existe,Ilegível,Seca,Perfeito estado,Não informado,Única,-8.0620111,-34.8879149
151,2019-01-07 14:21:00,SEM VÍTIMA,MADALENA,RUA BENFICA,,ABALROAMENTO LONGITUDINAL,1,0,0,0,0,0,0,0,0,0,0,Cruzamento,Bom,Sem defeito,Perfeito estado,Seca,Perfeito estado,Não informado,Única,-8.0576866,-34.90866870000001
152,2019-01-07 14:25:00,SEM VÍTIMA,Não informado,RUA JOAO FERNANDES VIEIRA,,ABALROAMENTO LONGITUDINAL,1,0,0,0,0,0,0,0,1,0,0,Longo da via,Bom,Não existe,Não existente,Seca,Mal conservada,Não informado,Dupla,-8.0520569,-34.8946539
153,2019-01-07 14:34:00,COM VÍTIMA,BAIRRO DO RECIFE,AV MILITAR,,CHOQUE OBJETO FIXO,1,0,0,0,0,0,0,0,0,1,0,Longo da via,Bom,Não existe,Perfeito estado,Seca,Perfeito estado,Não informado,Única,-8.0520605,-34.871523100000005
154,2019-01-07 14:39:00,SEM VÍTIMA,IPSEP,RUA HELIO BRANDAO,,ABALROAMENTO TRANSVERSAL,1,1,0,0,0,0,0,0,0,0,0,Longo da via,Bom,Não existe,Perfeito estado,Seca,Perfeito estado,Não informado,Dupla,-8.1043358,-34.926184899999996
155,2019-01-07 14:39:00,SEM VÍTIMA,SANTO AMARO,RUA DO POMBAL,235,ABALROAMENTO TRANSVERSAL,2,0,0,0,0,0,0,0,0,0,0,Cruzamento,Bom,Não existe,Perfeito estado,Seca,Perfeito estado,Não informado,Dupla,-8.0519068,-34.8846401
156,2019-01-07 15:04:00,SEM VÍTIMA,Não informado,AV GOVERNADOR AGAMENON MAGALHAES,,ABALROAMENTO LONGITUDINAL,2,0,0,0,0,0,0,0,0,0,0,Ponte,Bom,Sem defeito,Perfeito estado,Seca,Perfeito estado,60 km/h,Dupla,-8.0615339,-34.8974443
157,2019-01-07 15:08:00,SEM VÍTIMA,SAN MARTIN,AV GENERAL SAN MARTIN,,COLISÃO,1,1,0,0,0,0,0,0,0,0,0,Não informado,Não informado,Não informado,Não informado,Não informado,Não informado,Não informado,Não informado,-8.0713227,-34.928857799999996
158,2019-01-07 15:22:00,SEM VÍTIMA,CAMPINA DO BARRETO,RUA DOS CRAVEIROS,281,ABALROAMENTO LONGITUDINAL,1,0,0,0,0,0,0,1,0,0,0,Longo da via,Bom,Não existe,Perfeito estado,Seca,Perfeito estado,30 km/h,Única,-8.014537599999999,-34.8814253
159,2019-01-05 10:45:00,COM VÍTIMA,ARRUDA,AV PROFESSOR JOSE DOS ANJOS,,ABALROAMENTO TRANSVERSAL,1,1,0,0,0,0,0,0,0,1,0,Cruzamento,Bom,Sem defeito,Perfeito estado,Seca,Perfeito estado,40 km/h,Dupla,-8.027459599999998,-34.8891438
160,2019-01-07 15:24:00,SEM VÍTIMA,CORDEIRO,AV CAXANGA,,ABALROAMENTO TRANSVERSAL,1,0,0,0,0,0,0,0,1,0,0,Longo da via,Bom,Sem defeito,Perfeito estado,Seca,Perfeito estado,40 km/h,Dupla,-8.0311907,-34.956089
161,2019-01-07 15:41:00,SEM VÍTIMA,TORREÃO,AV NORTE,2157,COLISÃO TRASEIRA,1,0,0,0,0,0,0,1,0,0,0,Longo da via,Bom,Sem defeito,Perfeito estado,Seca,Perfeito estado,60 km/h,Dupla,-8.027844,-34.903102000000004
162,2019-01-07 16:03:00,SEM VÍTIMA,BOA VIAGEM,RUA VISCONDE DE JEQUITINHONHA,1503,ABALROAMENTO TRANSVERSAL,1,1,0,0,0,0,0,0,0,0,0,Longo da via,Bom,Não existe,Perfeito estado,Seca,Perfeito estado,60 km/h,Única,-8.1358365,-34.9028138
163,2019-01-07 16:20:00,COM VÍTIMA,TAMARINEIRA,EST VELHA DE AGUA FRIA,,ABALROAMENTO TRANSVERSAL,1,1,0,0,0,0,0,0,0,1,0,Cruzamento,Bom,Não existe,Perfeito estado,Seca,Perfeito estado,Não informado,Dupla,-8.027844,-34.903102000000004
164,2019-01-07 16:40:00,SEM VÍTIMA,AFOGADOS,RUA MOTOCOLOMBO,184,COLISÃO TRASEIRA,3,0,0,0,0,0,1,0,0,0,0,Longo da via,Bom,Não existe,Perfeito estado,Seca,Perfeito estado,Não informado,Única,-8.0821606,-34.9064421
165,2019-01-07 16:41:00,SEM VÍTIMA,BOA VIAGEM,AV CONSELHEIRO AGUIAR,,COLISÃO TRASEIRA,2,0,0,0,0,0,0,0,0,0,0,Longo da via,Bom,Não existe,Perfeito estado,Seca,Perfeito estado,Não informado,Única,-8.1017679,-34.8870824
166,2019-01-07 17:28:00,SEM VÍTIMA,DERBY,AV GOVERNADOR AGAMENON MAGALHAES,,COLISÃO TRASEIRA,0,0,0,0,0,0,0,2,0,0,0,Longo da via,Bom,Não existe,Perfeito estado,Seca,Perfeito estado,60 km/h,Dupla,-8.0615339,-34.8974443
167,2019-01-07 17:57:00,SEM VÍTIMA,BOA VIAGEM,RUA VISCONDE DE JEQUITINHONHA,,COLISÃO,1,1,0,0,0,0,0,0,0,0,0,Não informado,Não informado,Não informado,Não informado,Não informado,Não informado,Não informado,Não informado,-8.133753500000001,-34.9025533
168,2019-01-07 21:35:00,COM VÍTIMA,ALTO JOSÉ BONIFÁCIO,RUA CORREGO DO EUCLIDES,765,ABALROAMENTO TRANSVERSAL,1,1,0,0,0,0,0,0,0,1,0,Longo da via,Bom,Não existe,Incompleta,Seca,Perfeito estado,Não informado,Dupla,-8.0182872,-34.9115994
169,2019-01-07 21:42:00,SEM VÍTIMA,BOA VIAGEM,RUA BARAO DE SOUZA LEAO,514,ABALROAMENTO TRANSVERSAL,2,0,0,0,0,0,0,0,0,0,0,Longo da via,Bom,Não existe,Perfeito estado,Seca,Perfeito estado,Não informado,Única,-8.1314395,-34.9047112
170,2019-01-07 22:01:00,SEM VÍTIMA,DOIS UNIDOS,AV HILDEBRANDO DE VASCONCELOS,1016,COLISÃO FRONTAL,2,0,0,0,0,0,0,0,0,0,0,Longo da via,Bom,Não existe,Não existente,Seca,Mal iluminada,Não informado,Dupla,-8.0040434,-34.899828899999996
171,2019-01-08 06:25:00,SEM VÍTIMA,SÃO JOSÉ,RUA DO PEIXOTO,,ABALROAMENTO LONGITUDINAL,1,0,0,0,0,1,0,0,0,0,0,Cruzamento,Bom,Sem defeito,Incompleta,Seca,Perfeito estado,40 km/h,Única,-8.0709604,-34.8838797
172,2019-01-08 06:47:00,SEM VÍTIMA,VÁRZEA,RUA MARECHAL MANOEL LUIS OSORIO,495,ABALROAMENTO TRANSVERSAL,1,1,0,0,0,0,0,0,0,0,0,Cruzamento,Não informado,Não existe,Perfeito estado,Seca,Perfeito estado,Não informado,Não informado,-8.0414984,-34.9454343
173,2019-01-08 06:59:00,SEM VÍTIMA,VÁRZEA,RUA PROFESSOR CHAVES BATISTA,187,COLISÃO TRASEIRA,1,1,0,0,0,0,0,0,0,0,0,Longo da via,Bom,Sem defeito,Perfeito estado,Seca,Perfeito estado,Não informado,Única,-8.0382449,-34.9446753
174,2019-01-08 07:31:00,COM VÍTIMA,CABANGA,AV GOVERNADOR PAULO GUERRA,,COLISÃO COM CICLISTA,0,1,0,1,0,0,0,0,0,2,0,Longo da via,Bom,Sem defeito,Perfeito estado,Seca,Perfeito estado,Não informado,Única,-8.08017145,-34.892336516962274
175,2019-01-08 07:49:00,SEM VÍTIMA,VÁRZEA,RUA MARECHAL MANOEL LUIS OSORIO,495,CHOQUE VEÍCULO PARADO,2,0,0,0,0,0,0,0,0,0,0,Longo da via,Bom,Não existe,Não existente,Seca,Perfeito estado,Não informado,Única,-8.0414984,-34.9454343
176,2019-01-08 07:53:00,SEM VÍTIMA,PAISSANDU,RUA PAISSANDU,,ABALROAMENTO LONGITUDINAL,1,1,0,0,0,0,0,0,0,0,0,Longo da via,Bom,Não existe,Perfeito estado,Seca,Perfeito estado,Não informado,Dupla,-8.0593916,-34.894114
177,2019-01-08 07:56:00,SEM VÍTIMA,PAISSANDU,RUA PAISSANDU,,COLISÃO,1,1,0,0,0,0,0,0,0,0,0,Não informado,Não informado,Não informado,Não informado,Não informado,Não informado,Não informado,Não informado,-8.0593916,-34.894114
178,2019-01-08 08:21:00,SEM VÍTIMA,BOA VIAGEM,AV ENGENHEIRO DOMINGOS FERREIRA,,ABALROAMENTO TRANSVERSAL,2,0,0,0,0,0,0,0,0,0,0,Cruzamento,Bom,Sem defeito,Perfeito estado,Seca,Perfeito estado,60 km/h,Única,-8.1155752,-34.895469899999995
179,2019-01-08 08:27:00,SEM VÍTIMA,CASA AMARELA,RUA MAJOR NEREU GUERRA,310,COLISÃO TRASEIRA,2,0,0,0,0,0,0,0,0,0,0,Longo da via,Bom,Sem defeito,Perfeito estado,Seca,Perfeito estado,30 km/h,Dupla,-8.0257673,-34.9147377
180,2019-01-08 08:57:00,SEM VÍTIMA,BOA VIAGEM,RUA BALTAZAR PASSOS,6432,ABALROAMENTO LONGITUDINAL,1,0,0,0,0,0,1,0,0,0,0,Cruzamento,Bom,Sem defeito,Perfeito estado,Seca,Perfeito estado,30 km/h,Única,-8.1417529,-34.9120711
181,2019-01-08 10:09:00,SEM VÍTIMA,CASA FORTE,AV DEZESSETE DE AGOSTO,2720,COLISÃO TRASEIRA,3,0,0,0,0,0,0,0,0,0,0,Longo da via,Bom,Não existe,Perfeito estado,Seca,Perfeito estado,60 km/h,Dupla,-8.037361200000001,-34.9148676
182,2019-01-08 10:24:00,SEM VÍTIMA,SANTO AMARO,RUA DA UNIAO,,ABALROAMENTO LONGITUDINAL,2,0,0,0,0,0,0,0,0,0,0,Longo da via,Bom,Não existe,Incompleta,Seca,Perfeito estado,Não informado,Única,-8.058024000000001,-34.8798679
183,2019-01-08 10:29:00,SEM VÍTIMA,NOVA DESCOBERTA,RUA CORREGO DA AREIA,1229,ABALROAMENTO LONGITUDINAL,1,0,0,0,0,0,1,0,0,0,0,Longo da via,Bom,Não existe,Não existente,Seca,Mal conservada,Não informado,Dupla,-8.005648299999999,-34.9319771
184,2019-01-08 10:58:00,SEM VÍTIMA,IMBIRIBEIRA,AV MARECHAL MASCARENHAS DE MORAES,820,COLISÃO TRASEIRA,2,0,0,0,0,0,0,0,0,0,0,Longo da via,Bom,Sem defeito,Perfeito estado,Seca,Perfeito estado,60 km/h,Dupla,-8.090024099999999,-34.9085172
185,2019-01-08 10:58:00,SEM VÍTIMA,NOVA DESCOBERTA,RUA CORREGO DA AREIA,,COLISÃO,1,0,0,0,0,0,1,0,0,0,0,Não informado,Não informado,Não informado,Não informado,Não informado,Não informado,Não informado,Não informado,-8.005648299999999,-34.9319771
186,2019-01-08 11:04:00,SEM VÍTIMA,AREIAS,AV RECIFE,5510,ABALROAMENTO LONGITUDINAL,1,0,0,0,0,0,1,0,0,0,0,Longo da via,Bom,Não existe,Perfeito estado,Seca,Perfeito estado,60 km/h,Única,-8.0846575,-34.9321359
187,2019-01-08 12:09:00,SEM VÍTIMA,ESPINHEIRO,RUA MARQUES DO PARANA,209,ABALROAMENTO TRANSVERSAL,2,0,0,0,0,0,0,0,0,0,0,Cruzamento,Bom,Não existe,Perfeito estado,Seca,Perfeito estado,Não informado,Dupla,-8.041353200000001,-34.888612
188,2019-01-08 12:34:00,SEM VÍTIMA,SANTO AMARO,AV VISCONDE DE SUASSUNA,923,CHOQUE VEÍCULO PARADO,2,0,0,0,0,0,0,0,0,0,0,Longo da via,Bom,Sem defeito,Perfeito estado,Seca,Perfeito estado,40 km/h,Única,-8.0504982,-34.8898250046077
189,2019-01-08 13:00:00,SEM VÍTIMA,TORRE,RUA REAL DA TORRE,1531,ABALROAMENTO LONGITUDINAL,1,1,0,0,0,0,0,0,0,0,0,Longo da via,Bom,Não existe,Incompleta,Seca,Perfeito estado,Não informado,Única,-8.050885300000001,-34.908207399999995
190,2019-01-08 13:05:00,SEM VÍTIMA,JAQUEIRA,RUA LEONARDO BEZERRA CAVALCANTE,59,ABALROAMENTO TRANSVERSAL,1,1,0,0,0,0,0,0,0,0,0,Longo da via,Bom,Sem defeito,Perfeito estado,Seca,Perfeito estado,40 km/h,Dupla,-8.0367962,-34.9085835
191,2019-01-08 13:20:00,SEM VÍTIMA,IMBIRIBEIRA,RUA PAMPULHA,268,COLISÃO,2,0,0,0,0,0,0,0,0,0,0,Não informado,Não informado,Não informado,Não informado,Não informado,Não informado,Não informado,Não informado,-8.108980099999998,-34.9163936
192,2019-01-08 13:29:00,SEM VÍTIMA,CAMPO GRANDE,AV PROFESSOR JOSE DOS ANJOS,116C,COLISÃO,1,1,0,0,0,0,0,0,0,0,0,Não informado,Não informado,Não informado,Não informado,Não informado,Não informado,Não informado,Não informado,-8.0282609,-34.8950543
193,2019-01-08 13:31:00,SEM VÍTIMA,MADALENA,AV VISCONDE DE ALBUQUERQUE,81,COLISÃO TRASEIRA,2,0,0,0,0,0,1,0,0,0,0,Longo da via,Bom,Sem defeito,Perfeito estado,Seca,Perfeito estado,Não informado,Única,-8.0573561,-34.90732379999999
194,2019-01-08 13:35:00,SEM VÍTIMA,BOA VIAGEM,RUA VISCONDE DE JEQUITINHONHA,452,COLISÃO,1,0,0,0,0,1,0,0,0,0,0,Não informado,Não informado,Não informado,Não informado,Não informado,Não informado,Não informado,Não informado,-8.138315299999999,-34.9037576
195,2019-01-08 15:04:00,COM VÍTIMA,IPSEP,RUA JEAN EMILE FAVRE,754,COLISÃO FRONTAL,1,1,0,0,0,0,0,0,0,1,0,Cruzamento,Bom,Sem defeito,Perfeito estado,Seca,Perfeito estado,Não informado,Dupla,-8.114486999999999,-34.9234848
196,2019-01-08 15:05:00,SEM VÍTIMA,SANTO AMARO,AV NORTE,,COLISÃO TRASEIRA,2,0,0,0,0,0,0,0,0,0,0,Longo da via,Bom,Sem defeito,Perfeito estado,Seca,Perfeito estado,Não informado,Dupla,-8.027844,-34.903102000000004
197,2019-01-08 15:06:00,SEM VÍTIMA,BOA VIAGEM,RUA BRUNO VELOSO,452,COLISÃO,1,0,0,0,0,1,0,0,0,0,0,Não informado,Não informado,Não informado,Não informado,Não informado,Não informado,Não informado,Não informado,-8.1211995,-34.9020179
198,2019-01-08 15:42:00,SEM VÍTIMA,PINA,AV ANTONIO DE GOES,500,COLISÃO TRASEIRA,3,0,0,0,0,0,0,0,0,0,0,Longo da via,Bom,Sem defeito,Perfeito estado,Seca,Perfeito estado,Não informado,Única,-8.0868807,-34.885340899999996
199,2019-01-08 16:20:00,SEM VÍTIMA,CASA AMARELA,EST DO ARRAIAL,3934,ABALROAMENTO LONGITUDINAL,2,0,0,0,0,0,0,0,0,0,0,Cruzamento,Bom,Sem defeito,Perfeito estado,Seca,Perfeito estado,Não informado,Única,-8.026711800000001,-34.916900299999995
200,2019-01-08 17:25:00,SEM VÍTIMA,BOA VIAGEM,AV VINTE DE JANEIRO,,COLISÃO TRASEIRA,2,0,0,0,0,0,0,0,0,0,0,Longo da via,Bom,Sem defeito,Perfeito estado,Seca,Perfeito estado,Não informado,Dupla,-8.1353026,-34.9136612
201,2019-01-08 18:51:00,SEM VÍTIMA,IMBIRIBEIRA,AV MARECHAL MASCARENHAS DE MORAES,,COLISÃO TRASEIRA,4,0,0,0,0,0,0,0,0,0,0,Longo da via,Bom,Não existe,Perfeito estado,Seca,Perfeito estado,Não informado,Dupla,-8.0856899,-34.9073777
202,2019-01-08 20:29:00,SEM VÍTIMA,GRAÇAS,RUA ANTENOR NAVARRO,60,COLISÃO TRASEIRA,2,0,0,0,0,0,0,0,0,0,0,Longo da via,Bom,Sem defeito,Perfeito estado,Seca,Perfeito estado,Não informado,Única,-8.0371959,-34.902209899999995
203,2019-01-09 01:50:00,SEM VÍTIMA,JORDÃO,RUA DR ALVARO FERRAZ,70,COLISÃO,2,0,0,0,0,0,0,0,0,0,0,Não informado,Não informado,Não informado,Não informado,Não informado,Não informado,Não informado,Não informado,-8.140578699999999,-34.928234100000005
204,2019-01-09 05:50:00,SEM VÍTIMA,BOA VIAGEM,RUA WALDEMAR NERY CARNEIRO MONTEIRO,391,ABALROAMENTO TRANSVERSAL,2,0,0,0,0,0,0,0,0,0,0,Cruzamento,Bom,Não existe,Perfeito estado,Seca,Perfeito estado,30 km/h,Dupla,-8.1365476,-34.9119431
205,2019-01-09 06:27:00,SEM VÍTIMA,BOA VISTA,RUA JOSE DE ALENCAR,,COLISÃO,1,1,0,0,0,0,0,0,0,0,0,Não informado,Não informado,Não informado,Não informado,Não informado,Não informado,Não informado,Não informado,-8.112525699999999,-34.956528000000006
206,2019-01-09 07:06:00,SEM VÍTIMA,MANGUEIRA,RUA VINTE E UM DE ABRIL,,COLISÃO,0,0,0,0,0,0,0,0,0,0,0,Não informado,Não informado,Não informado,Não informado,Não informado,Não informado,Não informado,Não informado,-8.075041800000001,-34.9190636
207,2019-01-09 07:49:00,COM VÍTIMA,BOA VIAGEM,AVENIDA CELSO FURTADO (VIA MANGUE),,ABALROAMENTO LONGITUDINAL,1,1,0,0,0,0,0,0,0,1,0,Longo da via,Bom,Não existe,Perfeito estado,Seca,Perfeito estado,60 km/h,Dupla,-8.1155752,-34.895469899999995
208,2019-01-09 08:32:00,SEM VÍTIMA,ENGENHO DO MEIO,Não informado,198,ABALROAMENTO LONGITUDINAL,2,1,0,0,0,0,0,0,0,0,0,Longo da via,Bom,Não existe,Perfeito estado,Seca,Perfeito estado,Não informado,Dupla,-8.0584933,-34.8848193
209,2019-01-09 09:03:00,SEM VÍTIMA,IMBIRIBEIRA,RUA CORONEL FABRICIANO,,ABALROAMENTO LONGITUDINAL,1,1,0,0,0,0,0,0,0,0,0,Longo da via,Bom,Não existe,Incompleta,Seca,Perfeito estado,30 km/h,Única,-8.1201113,-34.9126468
210,2019-01-09 10:16:00,SEM VÍTIMA,AREIAS,AV RECIFE,5520,COLISÃO TRASEIRA,2,0,0,0,0,0,0,0,0,0,0,Longo da via,Bom,Não existe,Perfeito estado,Seca,Perfeito estado,Não informado,Dupla,-8.0846575,-34.9321359
211,2019-01-09 12:19:00,SEM VÍTIMA,CAXANGÁ,AV CAXANGA,,COLISÃO,1,1,0,0,0,0,0,0,0,0,0,Não informado,Não informado,Não informado,Não informado,Não informado,Não informado,Não informado,Não informado,-8.0311907,-34.956089
212,2019-01-09 14:43:00,SEM VÍTIMA,ESTÂNCIA,AV RECIFE,,ABALROAMENTO LONGITUDINAL,1,0,0,0,0,0,1,0,0,0,0,Longo da via,Bom,Não existe,Perfeito estado,Seca,Perfeito estado,Não informado,Dupla,-8.1160254,-34.923929
213,2019-01-09 14:45:00,SEM VÍTIMA,SÃO JOSÉ,RUA SAO JOAO,,ABALROAMENTO LONGITUDINAL,2,0,0,0,0,0,0,0,0,0,0,Cruzamento,Bom,Sem defeito,Perfeito estado,Seca,Não informado,Não informado,Única,-8.0698789,-34.8827735
214,2019-01-09 15:19:00,SEM VÍTIMA,BOA VIAGEM,RUA RIO AZUL,,ABALROAMENTO TRANSVERSAL,1,1,0,0,0,0,0,0,0,0,0,Longo da via,Bom,Sem defeito,Perfeito estado,Seca,Perfeito estado,Não informado,Dupla,-8.135417599999998,-34.9089632
215,2019-01-09 15:21:00,COM VÍTIMA,TORRE,RUA JOSE BONIFACIO,1143,COLISÃO TRASEIRA,1,1,0,0,0,0,0,0,0,1,0,Longo da via,Bom,Sem defeito,Perfeito estado,Seca,Perfeito estado,Não informado,Dupla,-8.1127711,-35.30442070000001
216,2019-01-09 15:32:00,COM VÍTIMA,ÁGUA FRIA,AV BEBERIBE,,COLISÃO COM CICLISTA,1,0,0,1,0,0,0,0,0,1,0,Longo da via,Bom,Sem defeito,Perfeito estado,Seca,Perfeito estado,Não informado,Dupla,-8.013146,-34.889349100000004
217,2019-01-09 15:43:00,COM VÍTIMA,SÃO JOSÉ,TRV DO RAPOSO,177,ATROPELAMENTO,0,0,0,0,1,1,0,0,0,1,0,Longo da via,Bom,Não existe,Ilegível,Seca,Mal conservada,Não informado,Única,-8.0698789,-34.8827735
218,2019-01-09 16:54:00,SEM VÍTIMA,BOA VISTA,PTE PRINCESA IZABEL,,COLISÃO,0,2,0,0,0,0,0,0,0,0,0,Não informado,Não informado,Não informado,Não informado,Não informado,Não informado,Não informado,Não informado,-8.05996535,-34.886900542606234
219,2019-01-09 18:07:00,SEM VÍTIMA,DERBY,AV GOVERNADOR AGAMENON MAGALHAES,,COLISÃO TRASEIRA,2,0,0,0,0,0,0,0,0,0,0,Cruzamento,Bom,Sem defeito,Perfeito estado,Seca,Perfeito estado,60 km/h,Dupla,-8.0615339,-34.8974443
220,2019-01-09 18:55:00,SEM VÍTIMA,PINA,AV REPUBLICA ARABE UNIDA,,ABALROAMENTO LONGITUDINAL,2,0,0,0,0,0,0,0,0,0,0,Longo da via,Bom,Não existe,Perfeito estado,Seca,Perfeito estado,Não informado,Única,-8.0871924,-34.8886755
221,2019-01-09 19:35:00,SEM VÍTIMA,IPUTINGA,AV CAXANGA,3621,ABALROAMENTO LONGITUDINAL,1,0,0,0,0,0,1,0,0,0,0,Longo da via,Bom,Não informado,Perfeito estado,Seca,Perfeito estado,Não informado,Única,-8.0411982,-34.93833239999999
222,2019-01-09 20:45:00,COM VÍTIMA,ENCRUZILHADA,RUA AMARO COUTINHO,,ABALROAMENTO TRANSVERSAL,1,1,0,0,0,0,0,0,0,1,0,Cruzamento,Bom,Não existe,Não existente,Seca,Mal iluminada,Não informado,Dupla,-8.0343623,-34.894136200000005
223,2019-01-09 20:54:00,SEM VÍTIMA,CAMPO GRANDE,RUA ODORICO MENDES,28,COLISÃO FRONTAL,2,0,0,0,0,0,0,0,0,0,0,Longo da via,Bom,Sem defeito,Perfeito estado,Seca,Perfeito estado,Não informado,Não informado,-8.037900099999998,-34.8795406
224,2019-01-09 21:44:00,COM VÍTIMA,CORDEIRO,RUA DO FORTE,325,ABALROAMENTO LONGITUDINAL,0,1,1,0,0,0,0,0,0,1,0,Cruzamento,Bom,Não existe,Perfeito estado,Seca,Perfeito estado,Não informado,Dupla,-8.0709707,-34.880940100000004
225,2019-01-09 22:10:00,SEM VÍTIMA,BOA VIAGEM,RUA CORONEL ANIZIO RODRIGUES COELHO,871,ABALROAMENTO TRANSVERSAL,2,0,0,0,0,0,0,0,0,0,0,Cruzamento,Bom,Não existe,Perfeito estado,Seca,Perfeito estado,Não informado,Única,-8.1269288,-34.9068801
226,2019-01-09 22:27:00,COM VÍTIMA,SAN MARTIN,RUA COMENDADOR FRANCO FERREIRA,460,ABALROAMENTO TRANSVERSAL,2,0,0,0,0,0,0,0,0,1,0,Cruzamento,Bom,Não existe,Perfeito estado,Seca,Perfeito estado,30 km/h,Dupla,-8.0678467,-34.9276215
227,2019-01-10 00:35:00,SEM VÍTIMA,ARRUDA,RUA PROFESSOR JERONIMO GUEIROS,295,ABALROAMENTO TRANSVERSAL,2,0,0,0,0,0,0,0,0,0,0,Cruzamento,Bom,Sem defeito,Incompleta,Seca,Mal conservada,Não informado,Dupla,-8.0312653,-34.8898999
228,2019-01-10 07:40:00,SEM VÍTIMA,ILHA DO LEITE,RUA DR JOAO ASFORA,,ABALROAMENTO LONGITUDINAL,2,0,0,0,0,0,0,0,0,0,0,Longo da via,Bom,Não existe,Perfeito estado,Seca,Perfeito estado,30 km/h,Única,-8.0615339,-34.8974443
229,2019-01-10 08:22:00,SEM VÍTIMA,JARDIM SÃO PAULO,RUA SENADOR ALBERTO PASQUALINI,178,ABALROAMENTO LONGITUDINAL,2,0,0,0,0,0,0,0,0,0,0,Longo da via,Bom,Não existe,Perfeito estado,Seca,Perfeito estado,Não informado,Única,-8.0810388,-34.936956200000004
230,2019-01-10 08:43:00,SEM VÍTIMA,GRAÇAS,RUA ALBERTO PAIVA,,ABALROAMENTO LONGITUDINAL,2,0,0,0,0,0,0,0,0,0,0,Longo da via,Bom,Não existe,Perfeito estado,Seca,Perfeito estado,Não informado,Única,-8.044888499999999,-34.9030575
231,2019-01-10 09:07:00,SEM VÍTIMA,IMBIRIBEIRA,AV MARECHAL MASCARENHAS DE MORAES,,COLISÃO,0,2,0,0,0,0,0,0,0,0,0,Não informado,Não informado,Não informado,Não informado,Não informado,Não informado,Não informado,Não informado,-8.0856899,-34.9073777
232,2019-01-10 09:22:00,SEM VÍTIMA,BOA VISTA,RUA DA AURORA,,ABALROAMENTO TRANSVERSAL,1,0,0,0,0,1,0,0,0,0,0,Cruzamento,Bom,Sem defeito,Perfeito estado,Seca,Perfeito estado,Não informado,Única,-8.0576918,-34.8788536
233,2019-01-10 09:24:00,SEM VÍTIMA,JAQUEIRA,AV RUI BARBOSA,,COLISÃO TRASEIRA,2,0,0,0,0,0,0,0,0,0,0,Longo da via,Bom,Sem defeito,Perfeito estado,Seca,Perfeito estado,Não informado,Única,-8.046046400000002,-34.901877299999995
234,2019-01-10 10:11:00,SEM VÍTIMA,BOA VIAGEM,RUA AGENOR LOPES,25,ABALROAMENTO LONGITUDINAL,2,0,0,0,0,0,0,0,0,0,0,Longo da via,Bom,Não existe,Perfeito estado,Seca,Perfeito estado,Não informado,Única,-8.121091499999999,-34.9057076
235,2019-01-10 11:05:00,SEM VÍTIMA,PINA,RUA MANOEL DE BRITO,,COLISÃO TRASEIRA,2,0,0,0,0,0,0,0,0,0,0,Cruzamento,Bom,Sem defeito,Perfeito estado,Seca,Perfeito estado,Não informado,Única,-8.0881016,-34.889494899999995
236,2019-01-10 11:14:00,SEM VÍTIMA,SANTO AMARO,AV GOVERNADOR AGAMENON MAGALHAES,,COLISÃO TRASEIRA,1,0,0,0,0,1,0,0,0,0,0,Longo da via,Bom,Não existe,Perfeito estado,Seca,Perfeito estado,60 km/h,Dupla,-8.0615339,-34.8974443
237,2019-01-10 11:22:00,SEM VÍTIMA,SANTO AMARO,AV CRUZ CABUGA,,ABALROAMENTO LONGITUDINAL,1,0,0,0,0,1,0,0,0,0,0,Cruzamento,Bom,Sem defeito,Ilegível,Seca,Mal conservada,Não informado,Única,-8.0470189,-34.8766203
238,2019-01-10 11:41:00,SEM VÍTIMA,CASA AMARELA,AV DR EURICO CHAVES,,ABALROAMENTO LONGITUDINAL,1,0,0,0,0,1,0,0,0,0,0,Longo da via,Bom,Não existe,Não informado,Seca,Não informado,Não informado,Dupla,-8.0246907,-34.911449600000005
239,2019-01-10 12:50:00,SEM VÍTIMA,ESPINHEIRO,RUA VIGARIO BARRETO,82,ABALROAMENTO LONGITUDINAL,1,1,0,0,0,0,0,0,0,0,0,Longo da via,Bom,Não existe,Perfeito estado,Seca,Perfeito estado,Não informado,Dupla,-8.044351200000001,-34.896202170271785
240,2019-01-10 13:13:00,SEM VÍTIMA,TORRE,RUA REAL DA TORRE,1568,ABALROAMENTO LONGITUDINAL,2,0,0,0,0,0,0,0,0,0,0,Longo da via,Bom,Não existe,Incompleta,Seca,Perfeito estado,Não informado,Única,-8.0433425,-34.910453000000004
241,2019-01-10 13:20:00,COM VÍTIMA,IMBIRIBEIRA,RUA DEAO FARIA,632,ABALROAMENTO LONGITUDINAL,1,1,0,0,0,0,0,0,0,1,0,Longo da via,Bom,Sem defeito,Perfeito estado,Seca,Perfeito estado,Não informado,Dupla,-8.0934197,-34.911247499999995
242,2019-01-10 13:28:00,SEM VÍTIMA,TORRE,RUA REAL DA TORRE,1571,COLISÃO,2,0,0,0,0,0,0,0,0,0,0,Não informado,Não informado,Não informado,Não informado,Não informado,Não informado,Não informado,Não informado,-8.050885300000001,-34.908207399999995
243,2019-01-10 13:47:00,SEM VÍTIMA,CASA FORTE,AV DEZESSETE DE AGOSTO,2133,COLISÃO TRASEIRA,2,0,0,0,0,0,0,0,0,0,0,Longo da via,Bom,Sem defeito,Perfeito estado,Seca,Perfeito estado,60 km/h,Dupla,-8.0309104,-34.924774
244,2019-01-10 13:57:00,SEM VÍTIMA,IPUTINGA,AV CAXANGA,4038,COLISÃO,2,0,0,0,0,0,0,0,0,0,0,Não informado,Não informado,Não informado,Não informado,Não informado,Não informado,Não informado,Não informado,-8.03881745,-34.94145966445142
245,2019-01-10 14:01:00,SEM VÍTIMA,SANTO AMARO,AV CRUZ CABUGA,211,ABALROAMENTO LONGITUDINAL,1,0,0,0,0,1,0,0,0,0,0,Longo da via,Bom,Não existe,Perfeito estado,Seca,Perfeito estado,60 km/h,Dupla,-8.051594900000001,-34.8807946
246,2019-01-10 14:55:00,SEM VÍTIMA,ESPINHEIRO,AV CONS ROSA E SILVA,,ABALROAMENTO LONGITUDINAL,2,0,0,0,0,0,0,0,0,0,0,Longo da via,Bom,Não existe,Perfeito estado,Seca,Perfeito estado,Não informado,Única,-8.04681295,-34.89617457915308
247,2019-01-10 15:12:00,SEM VÍTIMA,TEJIPIÓ,RUA QUEIRA DEUS,14B,COLISÃO,1,0,0,0,0,0,1,0,0,0,0,Não informado,Não informado,Não informado,Não informado,Não informado,Não informado,Não informado,Não informado,-8.0934888,-34.9605751
248,2019-01-10 15:33:00,SEM VÍTIMA,SANTO ANTÔNIO,AV MARTINS DE BARROS,,COLISÃO TRASEIRA,2,0,0,0,0,0,0,0,0,0,0,Cruzamento,Bom,Sem defeito,Perfeito estado,Seca,Perfeito estado,Não informado,Única,-8.0679918,-34.8749493
249,2019-01-10 16:19:00,SEM VÍTIMA,SÃO JOSÉ,RUA IMPERIAL,1217,COLISÃO,2,0,0,0,0,0,0,0,0,0,0,Não informado,Não informado,Não informado,Não informado,Não informado,Não informado,Não informado,Não informado,-8.07537705,-34.892283434606206
250,2019-01-10 16:24:00,SEM VÍTIMA,HIPÓDROMO,RUA MARQUES DE BAIPENDI,50,ABALROAMENTO TRANSVERSAL,2,0,0,0,0,0,0,0,0,0,0,Cruzamento,Bom,Não existe,Perfeito estado,Seca,Perfeito estado,Não informado,Dupla,-8.029713300000001,-34.889235299999996
251,2019-01-10 16:30:00,COM VÍTIMA,ESPINHEIRO,RUA QUARENTA E OITO,447,ABALROAMENTO LONGITUDINAL,1,1,0,0,0,0,0,0,0,1,0,Longo da via,Bom,Sem defeito,Perfeito estado,Seca,Perfeito estado,Não informado,Única,-8.0382968,-34.894281899999996
252,2019-01-10 16:30:00,SEM VÍTIMA,BOA VISTA,AV GOVERNADOR AGAMENON MAGALHAES,,COLISÃO,1,0,0,0,0,1,0,0,0,0,0,Não informado,Não informado,Não informado,Não informado,Não informado,Não informado,Não informado,Não informado,-8.0615339,-34.8974443
253,2019-01-10 16:34:00,SEM VÍTIMA,MADALENA,RUA JOSE BONIFACIO,,ABALROAMENTO LONGITUDINAL,1,1,0,0,0,0,0,0,0,0,0,Longo da via,Bom,Sem defeito,Perfeito estado,Seca,Perfeito estado,Não informado,Única,-8.044123599999999,-34.9076816
254,2019-01-10 16:44:00,SEM VÍTIMA,BOA VIAGEM,Não informado,,ABALROAMENTO LONGITUDINAL,2,0,0,0,0,0,0,0,0,0,0,Não informado,Bom,Não existe,Perfeito estado,Seca,Perfeito estado,Não informado,Não informado,-8.0584933,-34.8848193
255,2019-01-10 16:47:00,SEM VÍTIMA,BOA VIAGEM,AV ENGENHEIRO DOMINGOS FERREIRA,3190,ABALROAMENTO LONGITUDINAL,1,0,0,0,0,1,0,0,0,0,0,Longo da via,Bom,Não existe,Perfeito estado,Seca,Perfeito estado,50 km/h,Única,-8.1168277,-34.8964983
256,2019-01-10 16:55:00,SEM VÍTIMA,ILHA DO RETIRO,EST DOS REMEDIOS,24,ABALROAMENTO TRANSVERSAL,2,0,0,0,0,0,0,0,0,0,0,Cruzamento,Bom,Sem defeito,Perfeito estado,Seca,Perfeito estado,40 km/h,Única,-8.065242999999999,-34.9055506
257,2019-01-10 16:56:00,SEM VÍTIMA,IPSEP,AV RECIFE,,COLISÃO TRASEIRA,4,0,0,0,0,0,0,0,0,0,0,Longo da via,Bom,Não existe,Não existente,Seca,Perfeito estado,Não informado,Dupla,-8.1160254,-34.923929
258,2019-01-10 17:06:00,COM VÍTIMA,MADALENA,RUA BENFICA,,ABALROAMENTO TRANSVERSAL,1,1,0,0,0,0,0,0,0,1,0,Cruzamento,Bom,Sem defeito,Perfeito estado,Seca,Perfeito estado,60 km/h,Única,-8.0576866,-34.90866870000001
259,2019-01-10 17:52:00,SEM VÍTIMA,ENCRUZILHADA,AV BEBERIBE,,ABALROAMENTO LONGITUDINAL,1,0,0,0,0,1,0,0,0,0,0,Longo da via,Bom,Sem defeito,Perfeito estado,Seca,Perfeito estado,Não informado,Dupla,-8.013146,-34.889349100000004
260,2019-01-10 18:14:00,SEM VÍTIMA,ARRUDA,RUA SAO BENTO,343,COLISÃO,1,1,0,0,0,0,0,0,0,0,0,Não informado,Não informado,Não informado,Não informado,Não informado,Não informado,Não informado,Não informado,-8.0235299,-34.8957163
261,2019-01-10 19:13:00,SEM VÍTIMA,BOA VIAGEM,AV BOA VIAGEM,,CHOQUE VEÍCULO PARADO,3,0,0,0,0,0,0,0,1,0,0,Longo da via,Bom,Não existe,Perfeito estado,Seca,Perfeito estado,Não informado,Única,-8.0906381,-34.8817684
262,2019-01-10 19:18:00,SEM VÍTIMA,Não informado,RUA BENFICA,351,COLISÃO TRASEIRA,2,0,0,0,0,0,0,0,0,0,0,Não informado,Bom,Não existe,Perfeito estado,Seca,Perfeito estado,Não informado,Única,-8.0580139,-34.90828870000001
263,2019-01-10 19:31:00,SEM VÍTIMA,BOMBA DO HEMETÉRIO,Não informado,,CHOQUE OBJETO FIXO,1,0,0,0,0,0,0,0,0,0,0,Longo da via,Bom,Não existe,Perfeito estado,Seca,Perfeito estado,Não informado,Dupla,-8.0584933,-34.8848193
264,2019-01-10 20:50:00,SEM VÍTIMA,IMBIRIBEIRA,AV MARECHAL MASCARENHAS DE MORAES,,ABALROAMENTO LONGITUDINAL,2,0,0,0,0,0,0,0,0,0,0,Cruzamento,Chuvoso,Sem defeito,Perfeito estado,Molhada,Perfeito estado,Não informado,Dupla,-8.0856899,-34.9073777
265,2019-01-10 21:06:00,COM VÍTIMA,IPUTINGA,AV CAXANGA,,COLISÃO TRASEIRA,1,1,0,0,0,0,0,0,0,1,0,Longo da via,Chuvoso,Não existe,Perfeito estado,Molhada,Perfeito estado,Não informado,Única,-8.0311907,-34.956089
266,2019-01-10 21:30:00,SEM VÍTIMA,IMBIRIBEIRA,AV MARECHAL MASCARENHAS DE MORAES,2555,COLISÃO,2,0,0,0,0,0,0,0,0,0,0,Não informado,Não informado,Não informado,Não informado,Não informado,Não informado,Não informado,Não informado,-8.110505,-34.911894200000006
267,2019-01-10 21:53:00,SEM VÍTIMA,TORRE,AV BEIRA RIO,,COLISÃO TRASEIRA,2,0,0,0,0,0,0,0,0,0,0,Longo da via,Chuvoso,Não existe,Perfeito estado,Molhada,Perfeito estado,Não informado,Dupla,-8.0428409,-34.905144299999996
268,2019-01-10 23:26:00,SEM VÍTIMA,IPSEP,AV RECIFE,,COLISÃO TRASEIRA,2,0,0,0,0,0,0,0,0,0,0,Longo da via,Chuvoso,Não existe,Perfeito estado,Molhada,Perfeito estado,Não informado,Dupla,-8.1160254,-34.923929
269,2019-01-11 00:37:00,SEM VÍTIMA,PINA,AV HERCULANO BANDEIRA,,ABALROAMENTO LONGITUDINAL,2,0,0,0,0,0,0,0,0,0,0,Cruzamento,Chuvoso,Intermitente,Perfeito estado,Molhada,Perfeito estado,Não informado,Única,-8.0908689,-34.8831924
270,2019-01-11 03:01:00,SEM VÍTIMA,PAISSANDU,AV GOVERNADOR AGAMENON MAGALHAES,,ABALROAMENTO TRANSVERSAL,2,0,0,0,0,0,0,0,0,0,0,Cruzamento,Chuvoso,Sem defeito,Perfeito estado,Molhada,Perfeito estado,Não informado,Dupla,-8.0615339,-34.8974443
271,2019-01-11 07:48:00,SEM VÍTIMA,BONGI,AV ENGENHEIRO ABDIAS DE CARVALHO,,COLISÃO TRASEIRA,2,0,0,0,0,0,0,0,0,0,0,Longo da via,Bom,Sem defeito,Perfeito estado,Seca,Perfeito estado,Não informado,Dupla,-8.062370399999999,-34.9319576
272,2019-01-11 09:14:00,SEM VÍTIMA,BOA VIAGEM,AV BOA VIAGEM,3232,ABALROAMENTO LONGITUDINAL,2,0,0,0,0,0,0,0,0,0,0,Longo da via,Bom,Sem defeito,Perfeito estado,Seca,Perfeito estado,60 km/h,Única,-8.11815275,-34.89416928012183
273,2019-01-11 09:23:00,SEM VÍTIMA,BOA VIAGEM,RUA RIBEIRO DE BRITO,,COLISÃO TRASEIRA,2,0,0,0,0,0,0,0,0,0,0,Longo da via,Bom,Sem defeito,Perfeito estado,Seca,Perfeito estado,60 km/h,Única,-8.1235605,-34.8998419
274,2019-01-11 10:10:00,COM VÍTIMA,BOA VIAGEM,AVENIDA CELSO FURTADO (VIA MANGUE),,CHOQUE OBJETO FIXO,1,0,0,0,0,0,0,0,0,1,0,Viaduto,Bom,Não existe,Perfeito estado,Seca,Perfeito estado,60 km/h,Dupla,-8.1229545,-34.9045403
275,2019-01-11 10:16:00,SEM VÍTIMA,BOA VIAGEM,AV ENGENHEIRO DOMINGOS FERREIRA,,ABALROAMENTO LONGITUDINAL,2,0,0,0,0,0,0,0,0,0,0,Cruzamento,Bom,Sem defeito,Perfeito estado,Seca,Perfeito estado,60 km/h,Única,-8.1155752,-34.895469899999995
276,2019-01-11 11:29:00,SEM VÍTIMA,BOA VIAGEM,AV CONSELHEIRO AGUIAR,4734,ABALROAMENTO LONGITUDINAL,2,0,0,0,0,0,0,0,0,0,0,Longo da via,Bom,Não existe,Perfeito estado,Seca,Perfeito estado,60 km/h,Única,-8.128528,-34.9006639
277,,SEM VÍTIMA,BOA VIAGEM,AV BOA VIAGEM,,ABALROAMENTO LONGITUDINAL,2,0,0,0,0,0,0,0,0,0,0,Cruzamento,Bom,Sem defeito,Perfeito estado,Seca,Perfeito estado,60 km/h,Única,-8.0906381,-34.8817684
278,2019-01-11 11:40:00,SEM VÍTIMA,BAIRRO DO RECIFE,CAIS DA ALFANDEGA,,ABALROAMENTO LONGITUDINAL,2,0,0,0,0,0,0,0,0,0,0,Longo da via,Bom,Sem defeito,Perfeito estado,Seca,Perfeito estado,40 km/h,Única,-8.065202150000001,-34.874193667708035
279,2019-01-11 11:49:00,SEM VÍTIMA,MADALENA,AV BEIRA RIO,,ABALROAMENTO LONGITUDINAL,2,0,0,0,0,0,0,0,0,0,0,Não informado,Bom,Não existe,Perfeito estado,Seca,Perfeito estado,Não informado,Dupla,-8.0428409,-34.905144299999996
280,2019-01-11 12:18:00,SEM VÍTIMA,ESPINHEIRO,RUA MARQUES DO PARANA,,ABALROAMENTO TRANSVERSAL,2,0,0,0,0,0,0,0,0,0,0,Cruzamento,Bom,Não existe,Perfeito estado,Seca,Perfeito estado,Não informado,Dupla,-8.041353200000001,-34.888612
281,2019-01-11 12:30:00,SEM VÍTIMA,ESPINHEIRO,RUA DO ESPINHEIRO,,ABALROAMENTO TRANSVERSAL,2,0,0,0,0,0,0,0,0,0,0,Cruzamento,Bom,Não existe,Perfeito estado,Seca,Perfeito estado,Não informado,Única,-8.0426365,-34.8927867
282,2019-01-11 13:01:00,SEM VÍTIMA,VÁRZEA,AV PROFESSOR ARTUR DE SA,956,COLISÃO FRONTAL,1,1,0,0,0,0,0,0,0,0,0,Longo da via,Bom,Não existe,Perfeito estado,Seca,Perfeito estado,40 km/h,Dupla,-8.0463985,-34.9467503
283,2019-01-11 13:50:00,SEM VÍTIMA,BOA VIAGEM,RUA JOSE MARIA DE MIRANDA,226,ABALROAMENTO TRANSVERSAL,1,1,0,0,0,0,0,0,0,0,0,Longo da via,Bom,Não existe,Perfeito estado,Seca,Perfeito estado,Não informado,Única,-8.108669599999999,-34.892757399999994
284,2019-01-11 14:19:00,SEM VÍTIMA,BOA VIAGEM,AV FERNANDO SIMOES BARBOSA,,ABALROAMENTO LONGITUDINAL,2,0,0,0,0,0,0,0,0,0,0,Cruzamento,Bom,Sem defeito,Perfeito estado,Seca,Perfeito estado,Não informado,Dupla,-8.124269,-34.901629299999996
285,2019-01-11 14:45:00,SEM VÍTIMA,BOA VIAGEM,RUA DO SA LEITAO,26,COLISÃO,1,0,0,0,0,0,1,0,0,0,0,Não informado,Não informado,Não informado,Não informado,Não informado,Não informado,Não informado,Não informado,-8.1155752,-34.895469899999995
286,2019-01-11 14:51:00,SEM VÍTIMA,IPSEP,AV RECIFE,2330,COLISÃO TRASEIRA,2,0,0,0,0,0,0,0,0,0,0,Longo da via,Bom,Sem defeito,Perfeito estado,Seca,Perfeito estado,Não informado,Dupla,-8.0846575,-34.9321359
287,2019-01-11 15:33:00,SEM VÍTIMA,IPUTINGA,RUA BOM PASTOR,64,ABALROAMENTO LONGITUDINAL,1,0,0,0,0,0,1,0,0,0,0,Longo da via,Bom,Sem defeito,Perfeito estado,Seca,Perfeito estado,Não informado,Única,-8.0412963,-34.938849
288,2019-01-11 15:33:00,SEM VÍTIMA,IMBIRIBEIRA,AV MARECHAL MASCARENHAS DE MORAES,4831,COLISÃO TRASEIRA,2,0,0,0,0,0,0,0,0,0,0,Longo da via,Bom,Sem defeito,Perfeito estado,Seca,Perfeito estado,Não informado,Dupla,-8.1272971,-34.915125599999996
289,2019-01-11 15:50:00,SEM VÍTIMA,IMBIRIBEIRA,AV MARECHAL MASCARENHAS DE MORAES,,COLISÃO,2,0,0,0,0,0,0,0,0,0,0,Não informado,Não informado,Não informado,Não informado,Não informado,Não informado,Não informado,Não informado,-8.0856899,-34.9073777
290,2019-01-11 16:17:00,COM VÍTIMA,ALTO JOSÉ DO PINHO,COR DO BARTOLOMEU,133,ABALROAMENTO LONGITUDINAL,1,1,0,0,0,0,0,0,0,2,0,Esquina,Bom,Não existe,Perfeito estado,Seca,Perfeito estado,Não informado,Dupla,-8.0227304,-34.907276700000004
291,2019-01-11 16:42:00,COM VÍTIMA,JAQUEIRA,RUA DO FUTURO,999,COLISÃO TRASEIRA,2,0,0,0,0,0,0,0,0,1,0,Longo da via,Bom,Não existe,Perfeito estado,Seca,Perfeito estado,30 km/h,Única,-8.0341051,-34.9055237
292,2019-01-11 16:53:00,SEM VÍTIMA,Não informado,RUA EXP FRANCISCO VITORIANO,,COLISÃO TRASEIRA,1,0,0,0,0,1,0,0,0,0,0,Longo da via,Bom,Não existe,Incompleta,Seca,Perfeito estado,Não informado,Dupla,-8.0580139,-34.90828870000001
293,2019-01-11 17:06:00,SEM VÍTIMA,IMBIRIBEIRA,AV RECIFE,,COLISÃO TRASEIRA,2,0,0,0,0,0,0,0,0,0,0,Longo da via,Bom,Não existe,Perfeito estado,Seca,Perfeito estado,Não informado,Única,-8.1160254,-34.923929
294,2019-01-11 17:16:00,SEM VÍTIMA,JAQUEIRA,RUA HOEL SETTE,1847,Não informado,1,0,0,0,0,0,0,0,0,0,0,Não informado,Não informado,Não informado,Não informado,Não informado,Não informado,Não informado,Não informado,-8.0359157,-34.9029636
295,2019-01-11 18:07:00,SEM VÍTIMA,ESPINHEIRO,AV GOVERNADOR AGAMENON MAGALHAES,,COLISÃO TRASEIRA,3,0,0,0,0,0,0,0,0,0,0,Cruzamento,Bom,Sem defeito,Perfeito estado,Seca,Perfeito estado,60 km/h,Única,-8.0615339,-34.8974443
296,2019-01-11 18:10:00,SEM VÍTIMA,IBURA,AV DOIS RIOS,,COLISÃO,1,0,0,0,0,0,1,0,0,0,0,Não informado,Não informado,Não informado,Não informado,Não informado,Não informado,Não informado,Não informado,-8.1124016,-34.938230700000005
297,2019-01-11 18:23:00,SEM VÍTIMA,BEBERIBE,AV BEBERIBE,2442,COLISÃO,1,0,0,0,0,0,1,0,0,0,0,Não informado,Não informado,Não informado,Não informado,Não informado,Não informado,Não informado,Não informado,-8.0223817,-34.89403529999999
298,2019-01-11 18:55:00,SEM VÍTIMA,JIQUIÁ,AV RECIFE,5835,ABALROAMENTO LONGITUDINAL,1,0,0,0,0,0,1,0,0,0,0,Longo da via,Bom,Sem defeito,Não informado,Seca,Não informado,Não informado,Única,-8.0846575,-34.9321359
299,2019-01-11 20:24:00,COM VÍTIMA,AREIAS,AV DR JOSE RUFINO,,COLISÃO FRONTAL,1,1,0,0,0,0,0,0,0,1,0,Cruzamento,Bom,Sem defeito,Perfeito estado,Seca,Perfeito estado,60 km/h,Dupla,-8.1160254,-34.923929
300,2019-01-12 00:58:00,COM VÍTIMA,CAMPO GRANDE,AV GOVERNADOR AGAMENON MAGALHAES,,ABALROAMENTO TRANSVERSAL,2,0,0,0,0,0,0,0,0,2,0,Cruzamento,Bom,Sem defeito,Perfeito estado,Seca,Perfeito estado,60 km/h,Dupla,-8.0615339,-34.8974443
301,2019-01-12 01:37:00,SEM VÍTIMA,MADALENA,AV VISCONDE DE ALBUQUERQUE,,CHOQUE VEÍCULO PARADO,1,1,0,0,0,0,0,0,0,0,0,Longo da via,Bom,Não existe,Perfeito estado,Seca,Perfeito estado,60 km/h,Única,-8.0581295,-34.9071394
302,2019-01-12 06:48:00,SEM VÍTIMA,AREIAS,AV RECIFE,,COLISÃO TRASEIRA,2,0,0,0,0,0,0,0,0,0,0,Longo da via,Chuvoso,Sem defeito,Perfeito estado,Molhada,Perfeito estado,Não informado,Dupla,-8.1160254,-34.923929
303,2019-01-12 06:58:00,SEM VÍTIMA,IMBIRIBEIRA,AV MARECHAL MASCARENHAS DE MORAES,,ABALROAMENTO LONGITUDINAL,1,0,0,0,0,1,0,0,0,0,0,Viaduto,Chuvoso,Não existe,Perfeito estado,Molhada,Perfeito estado,Não informado,Dupla,-8.0856899,-34.9073777
304,2019-01-12 08:03:00,COM VÍTIMA,JIQUIÁ,AV RECIFE,,COLISÃO TRASEIRA,2,0,0,0,0,0,0,0,0,2,0,Longo da via,Chuvoso,Não existe,Perfeito estado,Molhada,Perfeito estado,Não informado,Dupla,-8.1160254,-34.923929
305,2019-01-12 09:25:00,SEM VÍTIMA,TORRE,RUA JOSE BONIFACIO,,ABALROAMENTO LONGITUDINAL,1,0,0,0,0,0,1,0,0,0,0,Longo da via,Não informado,Não informado,Perfeito estado,Seca,Perfeito estado,Não informado,Única,-8.044123599999999,-34.9076816
306,2019-01-12 09:53:00,COM VÍTIMA,IMBIRIBEIRA,AV MARECHAL MASCARENHAS DE MORAES,5905,ABALROAMENTO LONGITUDINAL,0,2,0,0,0,0,0,0,0,2,0,Longo da via,Chuvoso,Não existe,Não informado,Molhada,Perfeito estado,Não informado,Única,-8.1239739,-34.9146964
307,,SEM VÍTIMA,SAN MARTIN,RUA COMENDADOR FRANCO FERREIRA,490,COLISÃO,1,0,0,0,0,0,1,0,0,0,0,Não informado,Não informado,Não informado,Não informado,Não informado,Não informado,Não informado,Não informado,-8.068137400000001,-34.927704
308,2019-01-12 10:34:00,SEM VÍTIMA,Não informado,RUA BENFICA,,COLISÃO TRASEIRA,2,0,0,0,0,0,0,0,0,0,0,Cruzamento,Chuvoso,Sem defeito,Perfeito estado,Molhada,Perfeito estado,Não informado,Dupla,-8.0576866,-34.90866870000001
309,2019-01-12 11:26:00,SEM VÍTIMA,AREIAS,AV RECIFE,,COLISÃO,3,0,0,0,0,0,0,0,0,0,0,Não informado,Não informado,Não informado,Não informado,Não informado,Não informado,Não informado,Não informado,-8.1160254,-34.923929
310,2019-01-12 11:43:00,COM VÍTIMA,ESTÂNCIA,AV RECIFE,758,ABALROAMENTO LONGITUDINAL,1,1,0,0,0,0,0,0,0,2,0,Longo da via,Chuvoso,Não informado,Perfeito estado,Molhada,Perfeito estado,60 km/h,Dupla,-8.0929262,-34.9294716
311,2019-01-12 11:45:00,SEM VÍTIMA,VÁRZEA,AV PROFESSOR MORAES REGO,447,COLISÃO,2,0,0,0,0,0,0,0,0,0,0,Não informado,Não informado,Não informado,Não informado,Não informado,Não informado,Não informado,Não informado,-8.0493033,-34.9456828
312,2019-01-12 13:08:00,SEM VÍTIMA,VÁRZEA,RUA MARECHAL MANOEL LUIS OSORIO,495,ABALROAMENTO TRANSVERSAL,2,0,0,0,0,0,0,0,0,0,0,Cruzamento,Chuvoso,Não existe,Não existente,Molhada,Perfeito estado,40 km/h,Dupla,-8.0414984,-34.9454343
313,2019-01-12 13:33:00,SEM VÍTIMA,BOA VIAGEM,AV CONSELHEIRO AGUIAR,3355,ABALROAMENTO LONGITUDINAL,2,0,0,0,0,0,0,0,0,0,0,Longo da via,Chuvoso,Não existe,Perfeito estado,Molhada,Perfeito estado,60 km/h,Única,-8.11868875,-34.895792936938875
314,2019-01-12 14:08:00,SEM VÍTIMA,CAXANGÁ,AV CAXANGA,,COLISÃO,1,0,0,0,0,1,0,0,0,0,0,Não informado,Não informado,Não informado,Não informado,Não informado,Não informado,Não informado,Não informado,-8.0311907,-34.956089
315,2019-01-12 14:11:00,SEM VÍTIMA,SÃO JOSÉ,AV SUL,,COLISÃO TRASEIRA,2,0,0,0,0,0,0,0,1,0,0,Longo da via,Chuvoso,Com defeito,Perfeito estado,Molhada,Perfeito estado,Não informado,Única,-8.081145,-34.905034
316,2019-01-12 14:33:00,COM VÍTIMA,IMBIRIBEIRA,AV MARECHAL MASCARENHAS DE MORAES,,ABALROAMENTO LONGITUDINAL,1,1,0,0,0,0,0,0,0,1,0,Longo da via,Chuvoso,Sem defeito,Perfeito estado,Molhada,Perfeito estado,Não informado,Dupla,-8.0856899,-34.9073777
317,2019-01-12 15:03:00,SEM VÍTIMA,IMBIRIBEIRA,RUA BARAO DE AGUA BRANCA,,ABALROAMENTO TRANSVERSAL,2,0,0,0,0,0,0,0,0,0,0,Cruzamento,Bom,Não existe,Não existente,Molhada,Perfeito estado,Não informado,Dupla,-8.1124101,-34.9047579
318,2019-01-12 15:20:00,SEM VÍTIMA,Não informado,AV BARAO DE BONITO,88,ABALROAMENTO TRANSVERSAL,1,0,0,0,0,0,1,0,1,0,0,Cruzamento,Chuvoso,Não existe,Não existente,Molhada,Perfeito estado,Não informado,Dupla,-8.0368258,-34.9503054
319,2019-01-12 15:20:00,SEM VÍTIMA,CORDEIRO,RUA CLAUDIO BROTHERHOOD,697,ABALROAMENTO TRANSVERSAL,2,0,0,0,0,0,0,0,0,0,0,Cruzamento,Chuvoso,Não existe,Não existente,Molhada,Perfeito estado,40 km/h,Dupla,-8.0523164,-34.9308561
320,2019-01-12 15:35:00,COM VÍTIMA,CASA AMARELA,RUA CORREGO DO EUCLIDES,114,COLISÃO COM CICLISTA,0,1,0,1,0,0,0,0,0,1,0,Longo da via,Chuvoso,Não existe,Incompleta,Molhada,Perfeito estado,Não informado,Dupla,-8.0182872,-34.9115994
321,2019-01-12 15:49:00,COM VÍTIMA,MADALENA,RUA ERNANI BRAGA,,ABALROAMENTO LONGITUDINAL,1,1,0,0,0,0,0,0,0,1,0,Cruzamento,Chuvoso,Não existe,Perfeito estado,Molhada,Não informado,Não informado,Única,-8.0530901,-34.9104909
322,2019-01-12 15:58:00,SEM VÍTIMA,IBURA,AV RECIFE,,ABALROAMENTO LONGITUDINAL,2,0,0,0,0,0,0,0,0,0,0,Longo da via,Chuvoso,Com defeito,Perfeito estado,Molhada,Perfeito estado,60 km/h,Única,-8.1160254,-34.923929
323,2019-01-12 16:00:00,SEM VÍTIMA,VÁRZEA,AV BARAO DE BONITO,88,COLISÃO,1,0,0,0,0,0,1,0,0,0,0,Não informado,Não informado,Não informado,Não informado,Não informado,Não informado,Não informado,Não informado,-8.0368258,-34.9503054
324,2019-01-12 17:37:00,SEM VÍTIMA,AFOGADOS,RUA SERTAOZINHO,75B,CHOQUE VEÍCULO PARADO,2,0,0,0,0,0,0,0,0,0,0,Longo da via,Chuvoso,Não existe,Perfeito estado,Molhada,Perfeito estado,Não informado,Dupla,-8.2188805,-34.9326821
325,2019-01-12 17:51:00,COM VÍTIMA,SÃO JOSÉ,AV SUL,,COLISÃO COM CICLISTA,1,0,0,1,0,0,0,0,0,1,0,Longo da via,Chuvoso,Não existe,Perfeito estado,Molhada,Mal iluminada,Não informado,Única,-8.081145,-34.905034
326,2019-01-12 18:30:00,COM VÍTIMA,PINA,AV HERCULANO BANDEIRA,825,ABALROAMENTO LONGITUDINAL,1,1,0,0,0,0,0,0,0,1,0,Longo da via,Chuvoso,Não existe,Perfeito estado,Molhada,Perfeito estado,Não informado,Única,-8.0867495,-34.8875751
327,2019-01-12 18:57:00,SEM VÍTIMA,ROSARINHO,AV NORTE,,CHOQUE OBJETO FIXO,1,0,0,0,0,0,0,0,0,0,0,Longo da via,Chuvoso,Sem defeito,Perfeito estado,Molhada,Perfeito estado,Não informado,Única,-8.027844,-34.903102000000004
328,2019-01-12 19:02:00,SEM VÍTIMA,BOA VISTA,RUA DOM BOSCO,,COLISÃO,2,0,0,0,0,0,0,0,0,0,0,Não informado,Não informado,Não informado,Não informado,Não informado,Não informado,Não informado,Não informado,-8.055150099999999,-34.8956937
329,2019-01-13 02:55:00,SEM VÍTIMA,DERBY,AV GOVERNADOR AGAMENON MAGALHAES,,ABALROAMENTO TRANSVERSAL,2,0,0,0,0,0,0,0,0,0,0,Cruzamento,Chuvoso,Sem defeito,Perfeito estado,Molhada,Não informado,Não informado,Dupla,-8.0615339,-34.8974443
330,2019-01-13 05:36:00,COM VÍTIMA,IBURA,AV DOIS RIOS,423,ABALROAMENTO LONGITUDINAL,1,1,0,0,0,0,0,0,0,1,0,Longo da via,Chuvoso,Não existe,Perfeito estado,Molhada,Perfeito estado,Não informado,Dupla,-8.1117807,-34.9376013
331,2019-01-13 07:21:00,SEM VÍTIMA,BOA VIAGEM,AV BOA VIAGEM,2080,ABALROAMENTO LONGITUDINAL,2,0,0,0,0,0,0,0,0,0,0,Longo da via,Bom,Sem defeito,Perfeito estado,Seca,Perfeito estado,60 km/h,Única,-8.109053900000001,-34.889236100000005
332,2019-01-13 09:43:00,SEM VÍTIMA,SANTO ANTÔNIO,RUA IMPERADOR PEDRO SEGUNDO,25,ABALROAMENTO LONGITUDINAL,2,0,0,0,0,0,0,0,0,0,0,Cruzamento,Bom,Sem defeito,Perfeito estado,Seca,Perfeito estado,Não informado,Única,-8.0610394,-34.8793117
333,2019-01-13 13:10:00,SEM VÍTIMA,IPUTINGA,AV CAXANGA,,ABALROAMENTO LONGITUDINAL,2,0,0,0,0,0,0,0,0,0,0,Cruzamento,Bom,Sem defeito,Perfeito estado,Seca,Perfeito estado,60 km/h,Única,-8.0311907,-34.956089
334,2019-01-13 14:12:00,SEM VÍTIMA,AREIAS,AV RECIFE,3585,COLISÃO TRASEIRA,2,0,0,0,0,0,0,0,0,0,0,Longo da via,Bom,Não existe,Perfeito estado,Seca,Perfeito estado,60 km/h,Dupla,-8.0846575,-34.9321359
335,2019-01-13 17:18:00,SEM VÍTIMA,TORREÃO,RUA AUGUSTO RODRIGUES,1726,ABALROAMENTO TRANSVERSAL,2,0,0,0,0,0,0,0,0,0,0,Não informado,Não informado,Não informado,Não informado,Não informado,Não informado,Não informado,Não informado,-8.0389993,-34.8851032
336,2019-01-13 18:53:00,SEM VÍTIMA,VÁRZEA,AV PROFESSOR LUIZ FREIRE,,COLISÃO TRASEIRA,2,0,0,0,0,0,0,0,0,0,0,Longo da via,Bom,Não existe,Incompleta,Seca,Mal iluminada,Não informado,Dupla,-8.0583168,-34.9501511
337,2019-01-13 19:25:00,COM VÍTIMA,DERBY,RUA PAISSANDU,,CHOQUE OBJETO FIXO,1,1,0,0,0,0,0,0,0,1,0,Cruzamento,Bom,Sem defeito,Perfeito estado,Seca,Perfeito estado,30 km/h,Dupla,-8.0593916,-34.894114
338,2019-01-13 20:10:00,COM VÍTIMA,IMBIRIBEIRA,AV MARECHAL MASCARENHAS DE MORAES,,COLISÃO COM CICLISTA,1,0,0,1,0,0,0,0,0,2,0,Cruzamento,Bom,Sem defeito,Perfeito estado,Seca,Perfeito estado,Não informado,Dupla,-8.0856899,-34.9073777
339,2019-01-13 21:09:00,SEM VÍTIMA,BOA VIAGEM,RUA VISCONDE DE JEQUITINHONHA,,COLISÃO,2,0,0,0,0,0,0,0,0,0,0,Não informado,Não informado,Não informado,Não informado,Não informado,Não informado,Não informado,Não informado,-8.133753500000001,-34.9025533
340,2019-01-13 21:25:00,COM VÍTIMA,BOA VIAGEM,AV BOA VIAGEM,2434,COLISÃO TRASEIRA,1,1,0,0,0,0,0,0,0,1,0,Longo da via,Chuvoso,Sem defeito,Perfeito estado,Molhada,Perfeito estado,Não informado,Única,-8.111887450000001,-34.89046296761812
341,2019-01-14 05:43:00,SEM VÍTIMA,BOA VIAGEM,RUA JOSE MARIA DE MIRANDA,,COLISÃO,2,0,0,0,0,0,0,0,0,0,0,Não informado,Não informado,Não informado,Não informado,Não informado,Não informado,Não informado,Não informado,-8.108669599999999,-34.892757399999994
342,2019-01-14 07:00:00,SEM VÍTIMA,SAN MARTIN,RUA VINTE E UM DE ABRIL,2341,COLISÃO,2,0,0,0,0,0,0,0,0,0,0,Não informado,Não informado,Não informado,Não informado,Não informado,Não informado,Não informado,Não informado,-8.0713181,-34.9282856
343,2019-01-14 08:06:00,SEM VÍTIMA,DERBY,RUA JENER DE SOUZA,,ABALROAMENTO LONGITUDINAL,1,0,0,0,0,1,0,0,0,0,0,Longo da via,Bom,Não existe,Perfeito estado,Seca,Perfeito estado,Não informado,Dupla,-8.058367500000001,-34.900008500000006
344,2019-01-14 08:09:00,SEM VÍTIMA,IPSEP,AV RECIFE,55,COLISÃO TRASEIRA,2,0,0,0,0,0,0,0,0,0,0,Longo da via,Bom,Sem defeito,Perfeito estado,Seca,Perfeito estado,Não informado,Dupla,-8.0846575,-34.9321359
345,2019-01-14 08:19:00,COM VÍTIMA,BOA VISTA,RUA GERVASIO PIRES,435,COLISÃO TRASEIRA,1,1,0,0,0,0,0,0,0,1,0,Longo da via,Bom,Não existe,Não informado,Seca,Perfeito estado,Não informado,Única,-8.058493349999999,-34.885991236012856
346,2019-01-14 08:37:00,COM VÍTIMA,PINA,AV ANTONIO DE GOES,,COLISÃO TRASEIRA,1,1,0,0,0,0,0,0,0,1,0,Longo da via,Bom,Não existe,Perfeito estado,Seca,Perfeito estado,60 km/h,Única,-8.0868807,-34.885340899999996
347,2019-01-14 08:58:00,SEM VÍTIMA,BAIRRO DO RECIFE,AV ALFREDO LISBOA,,COLISÃO TRASEIRA,2,0,0,0,0,0,0,0,0,0,0,Longo da via,Bom,Não existe,Perfeito estado,Seca,Perfeito estado,40 km/h,Única,-8.0607062,-34.8704034
348,2019-01-14 09:00:00,SEM VÍTIMA,IPSEP,AV DOM HELDER CAMARA,,COLISÃO TRASEIRA,2,0,0,0,0,0,0,0,0,0,0,Não informado,Bom,Sem defeito,Perfeito estado,Seca,Perfeito estado,Não informado,Única,-8.107967200000001,-34.9270139
349,2019-01-14 09:03:00,SEM VÍTIMA,BOA VIAGEM,RUA COSMORAMA,1060,ABALROAMENTO LONGITUDINAL,0,1,0,0,0,1,0,0,0,0,0,Cruzamento,Bom,Não existe,Perfeito estado,Seca,Perfeito estado,Não informado,Dupla,-8.1402156,-34.9107984
350,2019-01-14 09:20:00,SEM VÍTIMA,BOA VISTA,AV CONDE DA BOA VISTA,982,ABALROAMENTO LONGITUDINAL,0,0,0,0,0,2,0,0,0,0,0,Longo da via,Bom,Não existe,Perfeito estado,Seca,Perfeito estado,60 km/h,Dupla,-8.05758795,-34.88945325796421
351,2019-01-14 10:05:00,SEM VÍTIMA,MADALENA,RUA JOSE OSORIO,950,ABALROAMENTO TRANSVERSAL,2,0,0,0,0,0,0,0,0,0,0,Cruzamento,Bom,Não existe,Não informado,Seca,Perfeito estado,Não informado,Dupla,-8.053920699999999,-34.9132514
352,2019-01-14 10:49:00,SEM VÍTIMA,MADALENA,AV VISCONDE DE ALBUQUERQUE,103,ABALROAMENTO TRANSVERSAL,1,0,0,0,0,0,1,0,0,0,0,Longo da via,Bom,Não existe,Perfeito estado,Seca,Perfeito estado,Não informado,Única,-8.0572259,-34.9073136
353,2019-01-14 10:54:00,COM VÍTIMA,CASA AMARELA,AV NORTE,6430,ABALROAMENTO LONGITUDINAL,1,1,0,0,0,0,0,0,0,1,0,Longo da via,Bom,Não existe,Perfeito estado,Seca,Perfeito estado,60 km/h,Dupla,-8.027844,-34.903102000000004
354,2019-01-14 11:06:00,SEM VÍTIMA,ARRUDA,RUA DO MACHADO,,ABALROAMENTO TRANSVERSAL,2,0,0,0,0,0,0,0,0,0,0,Cruzamento,Bom,Não existe,Perfeito estado,Seca,Perfeito estado,Não informado,Dupla,-8.0248823,-34.8903773
355,2019-01-14 11:10:00,SEM VÍTIMA,SANTO AMARO,RUA ALVARES DE AZEVEDO,,ABALROAMENTO LONGITUDINAL,2,0,0,0,0,0,0,0,0,0,0,Longo da via,Bom,Sem defeito,Perfeito estado,Seca,Perfeito estado,Não informado,Única,-8.0496061,-34.8884951
356,2019-01-14 11:41:00,SEM VÍTIMA,TAMARINEIRA,AV NORTE,,COLISÃO TRASEIRA,2,0,0,0,0,0,0,0,0,0,0,Longo da via,Bom,Sem defeito,Perfeito estado,Seca,Perfeito estado,Não informado,Dupla,-8.027844,-34.903102000000004
357,2019-01-14 12:31:00,SEM VÍTIMA,BOA VISTA,AV MANOEL BORBA,330,ABALROAMENTO LONGITUDINAL,1,0,0,0,0,0,1,0,0,0,0,Não informado,Bom,Sem defeito,Perfeito estado,Seca,Perfeito estado,Não informado,Única,-8.06234865,-34.885255233897155
358,2019-01-14 14:12:00,SEM VÍTIMA,CASA FORTE,AV DEZESSETE DE AGOSTO,,ABALROAMENTO LONGITUDINAL,1,1,0,0,0,0,0,0,0,0,0,Não informado,Bom,Sem defeito,Perfeito estado,Seca,Perfeito estado,Não informado,Dupla,-8.0332267,-34.9105754
359,2019-01-14 13:47:00,SEM VÍTIMA,IPSEP,RUA PROFESSOR JOSE VICENTE,,COLISÃO FRONTAL,2,0,0,0,0,0,0,0,0,0,0,Longo da via,Bom,Não existe,Incompleta,Seca,Perfeito estado,Não informado,Única,-8.1030371,-34.925191999999996
360,2019-01-14 15:01:00,SEM VÍTIMA,DERBY,AV GOVERNADOR AGAMENON MAGALHAES,,COLISÃO TRASEIRA,1,0,0,0,0,1,0,0,0,0,0,Longo da via,Bom,Sem defeito,Perfeito estado,Seca,Perfeito estado,60 km/h,Dupla,-8.0615339,-34.8974443
361,2019-01-14 15:39:00,SEM VÍTIMA,SANTO AMARO,AV DR JAYME DA FONTE,,COLISÃO TRASEIRA,3,0,0,0,0,0,0,0,0,0,0,Cruzamento,Bom,Sem defeito,Perfeito estado,Seca,Perfeito estado,Não informado,Dupla,-8.045010000000001,-34.874445
362,2019-01-14 15:27:00,SEM VÍTIMA,BOA VIAGEM,RUA ANTONIO FALCAO,,COLISÃO TRASEIRA,2,0,0,0,0,0,0,0,0,0,0,Longo da via,Bom,Não existe,Perfeito estado,Seca,Perfeito estado,Não informado,Única,-8.1133174,-34.9001629
363,2019-01-14 16:07:00,SEM VÍTIMA,IPSEP,RUA JEAN EMILE FAVRE,,ABALROAMENTO TRANSVERSAL,2,0,0,0,0,0,0,0,0,0,0,Longo da via,Bom,Não existe,Perfeito estado,Seca,Perfeito estado,Não informado,Dupla,-8.1102878,-34.9186706
364,2019-01-14 16:18:00,SEM VÍTIMA,AREIAS,AV DR JOSE RUFINO,423,ABALROAMENTO TRANSVERSAL,2,0,0,0,0,0,0,0,0,0,0,Longo da via,Bom,Não existe,Perfeito estado,Seca,Perfeito estado,Não informado,Dupla,-8.1160254,-34.923929
365,2019-01-14 17:56:00,SEM VÍTIMA,BAIRRO DO RECIFE,CAIS DO APOLO,,ABALROAMENTO LONGITUDINAL,2,0,0,0,0,0,0,0,0,0,0,Longo da via,Bom,Não existe,Perfeito estado,Seca,Perfeito estado,40 km/h,Dupla,-8.063073900000001,-34.87422539999999
366,2019-01-14 18:50:00,SEM VÍTIMA,MADALENA,AV VISCONDE DE ALBUQUERQUE,123,ABALROAMENTO LONGITUDINAL,2,0,0,0,0,0,0,0,0,0,0,Longo da via,Bom,Não existe,Perfeito estado,Seca,Perfeito estado,Não informado,Única,-8.0553538,-34.9069421
367,2019-01-14 19:08:00,SEM VÍTIMA,AFOGADOS,EST DOS REMEDIOS,1238,ABALROAMENTO LONGITUDINAL,1,0,0,0,0,1,0,0,0,0,0,Longo da via,Bom,Sem defeito,Perfeito estado,Seca,Perfeito estado,Não informado,Única,-8.074546,-34.9089351
368,2019-01-14 19:10:00,COM VÍTIMA,AREIAS,AV DR JOSE RUFINO,1315,COLISÃO FRONTAL,1,1,0,0,0,0,0,0,0,1,0,Esquina,Bom,Não existe,Perfeito estado,Seca,Perfeito estado,Não informado,Dupla,-8.1160254,-34.923929
369,2019-01-14 20:37:00,SEM VÍTIMA,IPSEP,RUA JEAN EMILE FAVRE,862,COLISÃO TRASEIRA,3,0,0,0,0,0,0,0,0,0,0,Longo da via,Bom,Não existe,Perfeito estado,Seca,Perfeito estado,Não informado,Dupla,-8.1093721,-34.9179517
370,2019-01-14 21:45:00,SEM VÍTIMA,CORDEIRO,RUA CAMBUCI,124,CHOQUE VEÍCULO PARADO,0,1,0,0,0,1,0,0,0,0,0,Longo da via,Bom,Não existe,Perfeito estado,Seca,Perfeito estado,Não informado,Única,-8.0489297,-34.9291108
371,2019-01-14 21:49:00,SEM VÍTIMA,CASA AMARELA,RUA SANTA IZABEL,,ABALROAMENTO TRANSVERSAL,1,1,0,0,0,0,0,0,0,0,0,Não informado,Bom,Não existe,Perfeito estado,Seca,Perfeito estado,Não informado,Única,-8.0268365,-34.9204342
372,2019-01-14 23:44:00,SEM VÍTIMA,TORRE,RUA ANAJANOPOLIS,1,COLISÃO,1,1,0,0,0,0,0,0,0,0,0,Não informado,Não informado,Não informado,Não informado,Não informado,Não informado,Não informado,Não informado,-8.0454402,-34.9159375
373,2019-01-15 04:05:00,SEM VÍTIMA,BOA VIAGEM,AV ENGENHEIRO DOMINGOS FERREIRA,,ABALROAMENTO LONGITUDINAL,2,0,0,0,0,0,0,0,0,0,0,Cruzamento,Bom,Sem defeito,Perfeito estado,Seca,Perfeito estado,Não informado,Única,-8.1155752,-34.895469899999995
374,2019-01-15 06:28:00,SEM VÍTIMA,IPSEP,RUA DR RAPOSO PINTO,467,COLISÃO,1,0,0,0,0,1,0,0,0,0,0,Não informado,Não informado,Não informado,Não informado,Não informado,Não informado,Não informado,Não informado,-8.1160254,-34.923929
375,2019-01-15 07:32:00,SEM VÍTIMA,BOA VIAGEM,AV BOA VIAGEM,3296,COLISÃO TRASEIRA,2,0,0,0,0,0,0,0,0,0,0,Longo da via,Bom,Sem defeito,Perfeito estado,Seca,Perfeito estado,Não informado,Única,-8.1184744,-34.894629218446724
376,2019-01-15 07:46:00,SEM VÍTIMA,PONTO DE PARADA,RUA PROFESSOR JERONIMO GUEIROS,37,COLISÃO TRASEIRA,2,0,0,0,0,0,0,0,0,0,0,Cruzamento,Bom,Sem defeito,Perfeito estado,Seca,Perfeito estado,Não informado,Única,-8.0312653,-34.8898999
377,2019-01-15 08:14:00,SEM VÍTIMA,IMBIRIBEIRA,AV MARECHAL MASCARENHAS DE MORAES,7935,ABALROAMENTO TRANSVERSAL,1,1,0,0,0,0,0,0,0,0,0,Não informado,Nublado,Não existe,Perfeito estado,Seca,Perfeito estado,60 km/h,Dupla,-8.1405317,-34.9171719
378,2019-01-15 08:31:00,COM VÍTIMA,CAXANGÁ,AV CAXANGA,4695,ABALROAMENTO LONGITUDINAL,1,1,0,0,0,0,0,0,0,2,0,Longo da via,Bom,Não existe,Perfeito estado,Seca,Perfeito estado,Não informado,Dupla,-8.0311337,-34.955853600000005
379,2019-01-15 09:11:00,SEM VÍTIMA,AFOGADOS,RUA DA PAZ,,COLISÃO TRASEIRA,2,0,0,0,0,0,0,0,0,0,0,Cruzamento,Bom,Sem defeito,Perfeito estado,Seca,Perfeito estado,Não informado,Única,-8.0800469,-34.9052452
380,2019-01-15 09:53:00,SEM VÍTIMA,MACAXEIRA,AV JOSE AMERICO DE ALMEIDA,79,COLISÃO,1,0,0,0,0,1,0,0,0,0,0,Não informado,Não informado,Não informado,Não informado,Não informado,Não informado,Não informado,Não informado,-8.009246000000001,-34.931744200000004
381,2019-01-15 10:01:00,SEM VÍTIMA,ESPINHEIRO,RUA BARAO DE ITAMARACA,379,ABALROAMENTO TRANSVERSAL,2,0,0,0,0,0,0,0,0,0,0,Longo da via,Bom,Não existe,Não existente,Seca,Perfeito estado,Não informado,Dupla,-8.0440056,-34.8926061
382,2019-01-15 10:15:00,SEM VÍTIMA,MONTEIRO,AV DEZESSETE DE AGOSTO,2666,COLISÃO TRASEIRA,2,0,0,0,0,0,0,0,0,0,0,Longo da via,Bom,Sem defeito,Perfeito estado,Seca,Perfeito estado,Não informado,Dupla,-8.0276011,-34.9280612
383,2019-01-15 10:27:00,SEM VÍTIMA,IPSEP,AV DOM HELDER CAMARA,,ABALROAMENTO TRANSVERSAL,2,0,0,0,0,0,0,0,0,0,0,Cruzamento,Bom,Sem defeito,Incompleta,Seca,Perfeito estado,60 km/h,Dupla,-8.107967200000001,-34.9270139
384,2019-01-15 10:49:00,SEM VÍTIMA,PINA,AV ANTONIO DE GOES,220,COLISÃO TRASEIRA,2,0,0,0,0,0,0,0,0,0,0,Longo da via,Bom,Não existe,Perfeito estado,Seca,Perfeito estado,60 km/h,Única,-8.0868807,-34.885340899999996
385,2019-01-15 11:30:00,SEM VÍTIMA,GRAÇAS,AV RUI BARBOSA,829,ABALROAMENTO LONGITUDINAL,1,0,0,0,0,1,0,0,0,0,0,Longo da via,Bom,Não existe,Perfeito estado,Seca,Perfeito estado,Não informado,Única,-8.047894900000001,-34.899474100000006
386,2019-01-15 12:32:00,SEM VÍTIMA,SAN MARTIN,AV GENERAL SAN MARTIN,,COLISÃO TRASEIRA,2,0,0,0,0,0,0,0,0,0,0,Longo da via,Bom,Sem defeito,Perfeito estado,Seca,Perfeito estado,Não informado,Dupla,-8.0713227,-34.928857799999996
387,2019-01-15 13:11:00,SEM VÍTIMA,MADALENA,RUA BENFICA,,COLISÃO,2,0,0,0,0,0,0,0,0,0,0,Não informado,Não informado,Não informado,Não informado,Não informado,Não informado,Não informado,Não informado,-8.0576866,-34.90866870000001
388,2019-01-15 13:20:00,SEM VÍTIMA,MACAXEIRA,AV NORTE,,COLISÃO TRASEIRA,2,0,0,0,0,0,0,0,0,0,0,Longo da via,Bom,Sem defeito,Perfeito estado,Seca,Perfeito estado,60 km/h,Dupla,-8.027844,-34.903102000000004
389,2019-01-15 13:22:00,SEM VÍTIMA,CASA AMARELA,AV NORTE,5246,COLISÃO FRONTAL,2,0,0,0,0,0,0,0,0,0,0,Cruzamento,Bom,Sem defeito,Perfeito estado,Seca,Perfeito estado,60 km/h,Única,-8.027844,-34.903102000000004
390,2019-01-15 15:29:00,SEM VÍTIMA,IPSEP,AV RECIFE,2900,COLISÃO TRASEIRA,1,0,0,0,0,1,0,0,0,0,0,Longo da via,Bom,Não existe,Perfeito estado,Seca,Perfeito estado,Não informado,Dupla,-8.0846575,-34.9321359
391,2019-01-15 16:17:00,SEM VÍTIMA,DERBY,AV GOVERNADOR AGAMENON MAGALHAES,,COLISÃO TRASEIRA,2,0,0,0,0,0,0,0,0,0,0,Longo da via,Bom,Não existe,Não informado,Seca,Perfeito estado,60 km/h,Única,-8.0615339,-34.8974443
392,2019-01-15 16:34:00,SEM VÍTIMA,MACAXEIRA,AV NORTE,,COLISÃO TRASEIRA,2,0,0,0,0,0,0,0,0,0,0,Longo da via,Bom,Não existe,Perfeito estado,Seca,Perfeito estado,60 km/h,Dupla,-8.027844,-34.903102000000004
393,2019-01-15 16:50:00,SEM VÍTIMA,CASA AMARELA,AV NORTE,5407,COLISÃO TRASEIRA,3,0,0,0,0,0,0,0,0,0,0,Longo da via,Bom,Não existe,Perfeito estado,Seca,Perfeito estado,Não informado,Dupla,-8.027844,-34.903102000000004
394,2019-01-15 16:57:00,SEM VÍTIMA,BOA VIAGEM,AV DOM JOAO VI,,CHOQUE OBJETO FIXO,1,0,0,0,0,0,0,0,0,0,0,Longo da via,Bom,Não existe,Perfeito estado,Seca,Perfeito estado,Não informado,Única,-8.1181195,-34.9061879
395,2019-01-15 17:06:00,SEM VÍTIMA,IPUTINGA,RUA SAO MATEUS,223,ABALROAMENTO LONGITUDINAL,2,0,0,0,0,0,0,0,0,0,0,Longo da via,Bom,Não existe,Perfeito estado,Seca,Perfeito estado,40 km/h,Não informado,-8.0396613,-34.9364963
396,2019-01-15 18:51:00,SEM VÍTIMA,ENCRUZILHADA,RUA FERNANDO CESAR,255,ABALROAMENTO TRANSVERSAL,2,0,0,0,0,0,0,0,0,0,0,Longo da via,Bom,Não existe,Incompleta,Seca,Perfeito estado,30 km/h,Única,-8.005459,-35.0281101
397,2019-01-15 22:43:00,SEM VÍTIMA,TEJIPIÓ,AV PADRE IBIAPINA,,COLISÃO FRONTAL,2,0,0,0,0,0,0,0,0,0,0,Longo da via,Bom,Não existe,Não existente,Seca,Mal iluminada,40 km/h,Dupla,-8.0885618,-34.956379299999995
398,2019-01-16 07:16:00,SEM VÍTIMA,ENCRUZILHADA,AV JOAO DE BARROS,1890,COLISÃO TRASEIRA,2,0,0,0,0,0,0,0,0,0,0,Longo da via,Bom,Sem defeito,Perfeito estado,Seca,Perfeito estado,40 km/h,Única,-8.0379305,-34.8915966
399,2019-01-16 08:18:00,SEM VÍTIMA,AREIAS,Não informado,,ABALROAMENTO LONGITUDINAL,1,0,0,0,0,0,1,0,0,0,0,Longo da via,Bom,Não existe,Incompleta,Seca,Mal conservada,Não informado,Dupla,-8.0584933,-34.8848193
400,2019-01-16 08:25:00,SEM VÍTIMA,TORRE,RUA VITORIANO PALHARES,194,CHOQUE VEÍCULO PARADO,2,0,0,0,0,0,0,0,0,0,0,Longo da via,Bom,Não existe,Não existente,Seca,Perfeito estado,Não informado,Dupla,-8.0436602,-34.9094994
401,2019-01-16 08:58:00,COM VÍTIMA,ROSARINHO,AV NORTE,3388,ABALROAMENTO LONGITUDINAL,1,1,0,0,0,0,0,0,0,1,0,Longo da via,Bom,Sem defeito,Perfeito estado,Seca,Perfeito estado,Não informado,Dupla,-8.027844,-34.903102000000004
402,2019-01-16 09:07:00,SEM VÍTIMA,TORRE,RUA JOSE BONIFACIO,,ABALROAMENTO LONGITUDINAL,1,0,0,0,0,0,1,0,0,0,0,Longo da via,Bom,Sem defeito,Perfeito estado,Seca,Não informado,60 km/h,Dupla,-8.044123599999999,-34.9076816
403,2019-01-16 09:54:00,SEM VÍTIMA,TORRE,RUA DOM MANOEL DA COSTA,,ABALROAMENTO TRANSVERSAL,1,0,0,0,0,0,1,0,0,0,0,Longo da via,Bom,Não existe,Perfeito estado,Seca,Perfeito estado,Não informado,Única,-8.0481442,-34.914153799999994
404,2019-01-16 11:18:00,SEM VÍTIMA,PARNAMIRIM,RUA TITO ROSAS,,COLISÃO TRASEIRA,2,0,0,0,0,0,0,0,0,0,0,Longo da via,Bom,Não existe,Perfeito estado,Seca,Perfeito estado,Não informado,Única,-8.0343363,-34.9074744
405,2019-01-16 11:46:00,SEM VÍTIMA,BOA VIAGEM,AV BOA VIAGEM,3672,COLISÃO TRASEIRA,2,0,0,0,0,0,0,0,0,0,0,Longo da via,Bom,Sem defeito,Perfeito estado,Seca,Perfeito estado,60 km/h,Única,-8.121660799999999,-34.896226
406,2019-01-16 12:11:00,SEM VÍTIMA,BOA VIAGEM,RUA ERNESTO DE PAULA SANTOS,275,ABALROAMENTO LONGITUDINAL,1,0,0,0,0,1,0,0,0,0,0,Longo da via,Bom,Sem defeito,Perfeito estado,Seca,Perfeito estado,Não informado,Única,-8.1250193,-34.8996666
407,2019-01-16 14:05:00,SEM VÍTIMA,BOA VIAGEM,AV BOA VIAGEM,2454,ABALROAMENTO LONGITUDINAL,1,0,0,0,0,0,1,0,0,0,0,Longo da via,Bom,Sem defeito,Perfeito estado,Seca,Perfeito estado,Não informado,Única,-8.1120548,-34.89058296959853
408,2019-01-16 14:49:00,SEM VÍTIMA,BOMBA DO HEMETÉRIO,RUA BOMBA DO HEMETERIO,,ABALROAMENTO LONGITUDINAL,1,0,0,0,0,1,0,0,0,0,0,Longo da via,Bom,Não existe,Perfeito estado,Seca,Perfeito estado,Não informado,Dupla,-8.0235395,-34.8981907
409,2019-01-16 14:59:00,SEM VÍTIMA,PINA,AV CONSUL JOSEPH NOUJAIM,146,COLISÃO,1,0,0,0,0,0,1,0,0,0,0,Não informado,Não informado,Não informado,Não informado,Não informado,Não informado,Não informado,Não informado,-8.087402099999998,-34.887405799999996
410,2019-01-16 15:43:00,COM VÍTIMA,CASA AMARELA,RUA PADRE LEMOS,767,COLISÃO FRONTAL,1,1,0,0,0,0,0,0,0,1,0,Longo da via,Bom,Não existe,Perfeito estado,Seca,Perfeito estado,Não informado,Dupla,-8.021506299999999,-34.921284
411,2019-01-16 16:11:00,SEM VÍTIMA,BOA VIAGEM,RUA DES JOAO PAES,655,ABALROAMENTO LONGITUDINAL,2,0,0,0,0,0,0,0,0,0,0,Longo da via,Bom,Não existe,Perfeito estado,Seca,Perfeito estado,Não informado,Única,-8.124269,-34.901629299999996
412,2019-01-16 16:15:00,SEM VÍTIMA,IPSEP,AV RECIFE,2273 B,COLISÃO TRASEIRA,2,0,0,0,0,0,0,0,0,0,0,Longo da via,Bom,Não existe,Perfeito estado,Seca,Perfeito estado,60 km/h,Dupla,-8.1268572,-34.9201679
413,2019-01-16 17:52:00,SEM VÍTIMA,TORREÃO,AV GOVERNADOR AGAMENON MAGALHAES,,ABALROAMENTO LONGITUDINAL,2,0,0,0,0,0,0,0,0,0,0,Longo da via,Bom,Sem defeito,Perfeito estado,Seca,Perfeito estado,60 km/h,Única,-8.0615339,-34.8974443
414,2019-01-16 19:20:00,SEM VÍTIMA,PASSARINHO,EST DE PASSARINHO,,COLISÃO TRASEIRA,2,0,0,0,0,0,0,0,0,0,0,Longo da via,Bom,Não existe,Não informado,Seca,Perfeito estado,Não informado,Dupla,-8.0352636,-34.907571600000004
415,2019-01-16 21:04:00,SEM VÍTIMA,ARRUDA,AV PROFESSOR JOSE DOS ANJOS,,COLISÃO TRASEIRA,2,0,0,0,0,0,0,0,0,0,0,Longo da via,Bom,Não existe,Perfeito estado,Seca,Perfeito estado,Não informado,Única,-8.027459599999998,-34.8891438
416,2019-01-16 22:20:00,COM VÍTIMA,ESTÂNCIA,AV RECIFE,1040,ACID. DE PERCURSO,0,1,0,0,0,0,0,0,0,2,0,Não informado,Não informado,Não informado,Não informado,Não informado,Não informado,Não informado,Não informado,-8.0954614,-34.9290703
417,2019-01-16 22:42:00,SEM VÍTIMA,CAMPO GRANDE,RUA LUIZ CORREA,,ABALROAMENTO LONGITUDINAL,1,0,0,0,0,1,0,0,0,0,0,Longo da via,Bom,Não existe,Perfeito estado,Seca,Perfeito estado,Não informado,Dupla,-8.0277453,-34.886494899999995
418,2019-01-16 22:53:00,COM VÍTIMA,ENCRUZILHADA,RUA INACIO GALVAO DOS SANTOS,290,ABALROAMENTO TRANSVERSAL,1,1,0,0,0,0,0,0,0,1,0,Cruzamento,Bom,Não existe,Ilegível,Seca,Mal iluminada,30 km/h,Não informado,-8.0348109,-34.8925581
419,2019-01-16 23:01:00,SEM VÍTIMA,IMBIRIBEIRA,AV MARECHAL MASCARENHAS DE MORAES,,ABALROAMENTO LONGITUDINAL,0,0,0,0,0,2,0,0,0,0,0,Longo da via,Bom,Sem defeito,Perfeito estado,Seca,Perfeito estado,Não informado,Dupla,-8.0856899,-34.9073777
420,2019-01-17 07:46:00,COM VÍTIMA,PAISSANDU,RUA PAISSANDU,550,ATROPELAMENTO,1,0,0,0,1,0,0,0,0,1,0,Longo da via,Bom,Sem defeito,Perfeito estado,Seca,Perfeito estado,Não informado,Dupla,-8.062132,-34.8980141
421,2019-01-17 08:42:00,COM VÍTIMA,CASA FORTE,AV DEZESSETE DE AGOSTO,117,COLISÃO FRONTAL,0,1,0,0,0,1,0,0,0,1,0,Longo da via,Bom,Sem defeito,Perfeito estado,Seca,Perfeito estado,Não informado,Não informado,-8.037361200000001,-34.9148676
422,2019-01-17 09:10:00,SEM VÍTIMA,IMBIRIBEIRA,AV MARECHAL MASCARENHAS DE MORAES,4773,COLISÃO TRASEIRA,1,0,0,0,0,0,1,0,0,0,0,Longo da via,Bom,Não existe,Não existente,Seca,Perfeito estado,60 km/h,Dupla,-8.1261204,-34.91492120000001
423,2019-01-17 09:13:00,SEM VÍTIMA,BAIRRO DO RECIFE,CAIS DO APOLO,,ABALROAMENTO LONGITUDINAL,0,0,0,0,0,0,2,0,0,0,0,Cruzamento,Bom,Sem defeito,Perfeito estado,Seca,Perfeito estado,30 km/h,Dupla,-8.063073900000001,-34.87422539999999
424,2019-01-17 09:37:00,SEM VÍTIMA,BOA VIAGEM,RUA CAPITAO ZUZINHA,170,ABALROAMENTO LONGITUDINAL,1,1,0,0,0,0,0,0,0,0,0,Longo da via,Bom,Não existe,Perfeito estado,Seca,Perfeito estado,Não informado,Não informado,-8.1335058,-34.9043722
425,2019-01-17 09:37:00,SEM VÍTIMA,PARNAMIRIM,RUA LEONARDO BEZERRA CAVALCANTE,240,COLISÃO TRASEIRA,2,0,0,0,0,0,0,0,0,0,0,Longo da via,Bom,Não existe,Perfeito estado,Seca,Perfeito estado,Não informado,Dupla,-8.0367962,-34.9085835
426,2019-01-17 09:48:00,SEM VÍTIMA,ENCRUZILHADA,RUA QUARENTA E OITO,,ABALROAMENTO LONGITUDINAL,2,0,0,0,0,0,0,0,0,0,0,Cruzamento,Bom,Não existe,Incompleta,Seca,Perfeito estado,Não informado,Única,-8.0406146,-34.894858
427,2019-01-17 09:59:00,SEM VÍTIMA,PINA,AVENIDA CELSO FURTADO (VIA MANGUE),,COLISÃO TRASEIRA,2,0,0,0,0,0,0,0,0,0,0,Longo da via,Bom,Não existe,Perfeito estado,Seca,Perfeito estado,60 km/h,Dupla,-8.0868807,-34.885340899999996
428,2019-01-17 10:56:00,SEM VÍTIMA,MADALENA,RUA JOSE HIGINO,77,COLISÃO TRASEIRA,1,1,0,0,0,0,0,0,0,0,0,Longo da via,Bom,Não existe,Perfeito estado,Seca,Perfeito estado,Não informado,Única,-8.0529412,-34.9101075
429,2019-01-17 11:42:00,SEM VÍTIMA,IMBIRIBEIRA,AV MARECHAL MASCARENHAS DE MORAES,4631,COLISÃO TRASEIRA,3,0,0,0,0,0,0,0,0,0,0,Longo da via,Bom,Sem defeito,Perfeito estado,Seca,Perfeito estado,60 km/h,Dupla,-8.12500925,-34.913709882886124
430,2019-01-17 12:32:00,SEM VÍTIMA,SANTO AMARO,AV GOVERNADOR AGAMENON MAGALHAES,3621,COLISÃO,2,0,0,0,0,0,0,0,0,0,0,Não informado,Não informado,Não informado,Não informado,Não informado,Não informado,Não informado,Não informado,-8.040684299999999,-34.8825951
431,2019-01-17 12:49:00,SEM VÍTIMA,ENCRUZILHADA,AV BEBERIBE,,COLISÃO TRASEIRA,3,0,0,0,0,0,0,0,0,0,0,Cruzamento,Bom,Sem defeito,Perfeito estado,Seca,Perfeito estado,Não informado,Dupla,-8.013146,-34.889349100000004
432,2019-01-17 14:01:00,SEM VÍTIMA,CASA FORTE,AV DEZESSETE DE AGOSTO,99,ABALROAMENTO LONGITUDINAL,1,1,0,0,0,0,0,0,0,0,0,Não informado,Bom,Sem defeito,Perfeito estado,Seca,Perfeito estado,60 km/h,Dupla,-8.037361200000001,-34.9148676
433,2019-01-17 14:03:00,SEM VÍTIMA,BOA VIAGEM,AV ENGENHEIRO DOMINGOS FERREIRA,,COLISÃO TRASEIRA,2,0,0,0,0,0,0,0,0,0,0,Longo da via,Bom,Sem defeito,Perfeito estado,Seca,Perfeito estado,Não informado,Única,-8.1155752,-34.895469899999995
434,2019-01-17 15:05:00,SEM VÍTIMA,IMBIRIBEIRA,AV MARECHAL MASCARENHAS DE MORAES,4930,COLISÃO TRASEIRA,1,1,0,0,0,0,0,0,0,0,0,Longo da via,Bom,Não existe,Perfeito estado,Seca,Perfeito estado,Não informado,Dupla,-8.128342,-34.916501399999994
435,2019-01-17 15:06:00,SEM VÍTIMA,SANTO ANTÔNIO,RUA PRINCESA IZABEL,,COLISÃO TRASEIRA,4,0,0,0,0,0,0,0,0,0,0,Ponte,Bom,Sem defeito,Perfeito estado,Seca,Perfeito estado,Não informado,Dupla,-8.1236018,-35.091640399999996
436,2019-01-17 15:14:00,SEM VÍTIMA,ARRUDA,AV PROFESSOR JOSE DOS ANJOS,,ABALROAMENTO LONGITUDINAL,2,0,0,0,0,0,0,0,0,0,0,Cruzamento,Bom,Sem defeito,Perfeito estado,Seca,Perfeito estado,Não informado,Dupla,-8.027459599999998,-34.8891438
437,2019-01-17 16:05:00,SEM VÍTIMA,BOA VIAGEM,AV CONSELHEIRO AGUIAR,,ABALROAMENTO LONGITUDINAL,2,0,0,0,0,0,0,0,0,0,0,Longo da via,Bom,Não existe,Perfeito estado,Seca,Perfeito estado,Não informado,Única,-8.1017679,-34.8870824
438,2019-01-17 16:48:00,SEM VÍTIMA,VASCO DA GAMA,RUA ROSALIA CISNEIROS,37,CHOQUE VEÍCULO PARADO,0,0,0,0,0,1,1,0,0,0,0,Longo da via,Bom,Não existe,Não existente,Seca,Perfeito estado,Não informado,Dupla,-8.020346700000001,-34.922488
439,2019-01-17 16:58:00,SEM VÍTIMA,AFOGADOS,RUA VINTE E UM DE ABRIL,955,ABALROAMENTO LONGITUDINAL,1,0,0,0,0,1,0,0,0,0,0,Longo da via,Bom,Não existe,Ilegível,Seca,Perfeito estado,40 km/h,Dupla,-8.0758829,-34.9156753
440,2019-01-17 18:55:00,SEM VÍTIMA,ESPINHEIRO,RUA SANTO ELIAS,274,ABALROAMENTO TRANSVERSAL,2,0,0,0,0,0,0,0,0,0,0,Longo da via,Chuvoso,Não existe,Perfeito estado,Molhada,Perfeito estado,Não informado,Única,-8.0436341,-34.8952066
441,2019-01-17 19:24:00,COM VÍTIMA,IBURA,AV DOIS RIOS,,COLISÃO FRONTAL,0,1,0,0,0,0,1,0,0,1,0,Longo da via,Bom,Não existe,Incompleta,Seca,Perfeito estado,Não informado,Dupla,-8.1124016,-34.938230700000005
442,2019-01-17 19:34:00,SEM VÍTIMA,CASA FORTE,AV DEZESSETE DE AGOSTO,,ABALROAMENTO LONGITUDINAL,1,0,0,0,0,0,1,0,0,0,0,Longo da via,Bom,Sem defeito,Perfeito estado,Seca,Perfeito estado,Não informado,Dupla,-8.0332267,-34.9105754
443,2019-01-17 19:55:00,SEM VÍTIMA,PINA,AV HERCULANO BANDEIRA,1001,COLISÃO TRASEIRA,1,0,0,0,0,1,0,0,0,0,0,Longo da via,Bom,Sem defeito,Perfeito estado,Seca,Perfeito estado,Não informado,Única,-8.0852014,-34.8889953
